$GPGGA,104616.057,8960.000000,N,00000.000000,E,0,0,,137.000,M,13.000,M,,*45
$GPGSA,A,1,,,,,,,,,,,,,,,*1E
$GPRMC,104616.057,V,8960.000000,N,00000.000000,E,0.000,0.00,280309,,,N*47
$GPVTG,0.00,T,,M,0.000,N,0.000,K,N*32
$GPGGA,104617.057,8960.000000,N,00000.000000,E,0,0,,137.000,M,13.000,M,,*44
$GPGSA,A,1,,,,,,,,,,,,,,,*1E
$GPGSV,1,1,01,23,,,26*7D
$GPRMC,104617.057,V,8960.000000,N,00000.000000,E,0.000,0.00,280309,,,N*46
$GPVTG,0.00,T,,M,0.000,N,0.000,K,N*32
$GPGGA,104618.057,8960.000000,N,00000.000000,E,0,0,,137.000,M,13.000,M,,*4B
$GPGSA,A,1,,,,,,,,,,,,,,,*1E
$GPRMC,104618.057,V,8960.000000,N,00000.000000,E,0.000,0.00,280309,,,N*49
$GPVTG,0.00,T,,M,0.000,N,0.000,K,N*32
$GPGGA,104619.057,8960.000000,N,00000.000000,E,0,0,,137.000,M,13.000,M,,*4A
$GPGSA,A,1,,,,,,,,,,,,,,,*1E
$GPRMC,104619.057,V,8960.000000,N,00000.000000,E,0.000,0.00,280309,,,N*48
$GPVTG,0.00,T,,M,0.000,N,0.000,K,N*32
$GPGGA,104620.057,8960.000000,N,00000.000000,E,0,0,,137.000,M,13.000,M,,*40
$GPGSA,A,1,,,,,,,,,,,,,,,*1E
$GPRMC,104620.057,V,8960.000000,N,00000.000000,E,0.000,0.00,280309,,,N*42
$GPVTG,0.00,T,,M,0.000,N,0.000,K,N*32
$GPGGA,104621.057,8960.000000,N,00000.000000,E,0,0,,137.000,M,13.000,M,,*41
$GPGSA,A,1,,,,,,,,,,,,,,,*1E
$GPRMC,104621.057,V,8960.000000,N,00000.000000,E,0.000,0.00,280309,,,N*43
$GPVTG,0.00,T,,M,0.000,N,0.000,K,N*32
$GPGGA,104622.057,8960.000000,N,00000.000000,E,0,0,,137.000,M,13.000,M,,*42
$GPGSA,A,1,,,,,,,,,,,,,,,*1E
$GPGSV,1,1,01,23,,,25*7E
$GPRMC,104622.057,V,8960.000000,N,00000.000000,E,0.000,0.00,280309,,,N*40
$GPVTG,0.00,T,,M,0.000,N,0.000,K,N*32
$GPGGA,104623.057,8960.000000,N,00000.000000,E,0,0,,137.000,M,13.000,M,,*43
$GPGSA,A,1,,,,,,,,,,,,,,,*1E
$GPRMC,104623.057,V,8960.000000,N,00000.000000,E,0.000,0.00,280309,,,N*41
$GPVTG,0.00,T,,M,0.000,N,0.000,K,N*32
$GPGGA,104624.057,8960.000000,N,00000.000000,E,0,0,,137.000,M,13.000,M,,*44
$GPGSA,A,1,,,,,,,,,,,,,,,*1E
$GPRMC,104624.057,V,8960.000000,N,00000.000000,E,0.000,0.00,280309,,,N*46
$GPVTG,0.00,T,,M,0.000,N,0.000,K,N*32
$GPGGA,104625.057,8960.000000,N,00000.000000,E,0,0,,137.000,M,13.000,M,,*45
$GPGSA,A,1,,,,,,,,,,,,,,,*1E
$GPRMC,104625.057,V,8960.000000,N,00000.000000,E,0.000,0.00,280309,,,N*47
$GPVTG,0.00,T,,M,0.000,N,0.000,K,N*32
$GPGGA,104626.057,8960.000000,N,00000.000000,E,0,0,,137.000,M,13.000,M,,*46
$GPGSA,A,1,,,,,,,,,,,,,,,*1E
$GPRMC,104626.057,V,8960.000000,N,00000.000000,E,0.000,0.00,280309,,,N*44
$GPVTG,0.00,T,,M,0.000,N,0.000,K,N*32
$GPGGA,104627.057,8960.000000,N,00000.000000,E,0,0,,137.000,M,13.000,M,,*47
$GPGSA,A,1,,,,,,,,,,,,,,,*1E
$GPGSV,1,1,01,23,,,25*7E
$GPRMC,104627.057,V,8960.000000,N,00000.000000,E,0.000,0.00,280309,,,N*45
$GPVTG,0.00,T,,M,0.000,N,0.000,K,N*32
$GPGGA,104628.057,8960.000000,N,00000.000000,E,0,0,,137.000,M,13.000,M,,*48
$GPGSA,A,1,,,,,,,,,,,,,,,*1E
$GPRMC,104628.057,V,8960.000000,N,00000.000000,E,0.000,0.00,280309,,,N*4A
$GPVTG,0.00,T,,M,0.000,N,0.000,K,N*32
$GPGGA,104629.057,8960.000000,N,00000.000000,E,0,0,,137.000,M,13.000,M,,*49
$GPGSA,A,1,,,,,,,,,,,,,,,*1E
$GPRMC,104629.057,V,8960.000000,N,00000.000000,E,0.000,0.00,280309,,,N*4B
$GPVTG,0.00,T,,M,0.000,N,0.000,K,N*32
$GPGGA,104630.057,8960.000000,N,00000.000000,E,0,0,,137.000,M,13.000,M,,*41
$GPGSA,A,1,,,,,,,,,,,,,,,*1E
$GPRMC,104630.057,V,8960.000000,N,00000.000000,E,0.000,0.00,280309,,,N*43
$GPVTG,0.00,T,,M,0.000,N,0.000,K,N*32
$GPGGA,104631.057,8960.000000,N,00000.000000,E,0,0,,137.000,M,13.000,M,,*40
$GPGSA,A,1,,,,,,,,,,,,,,,*1E
$GPRMC,104631.057,V,8960.000000,N,00000.000000,E,0.000,0.00,280309,,,N*42
$GPVTG,0.00,T,,M,0.000,N,0.000,K,N*32
$GPGGA,104632.057,8960.000000,N,00000.000000,E,0,0,,137.000,M,13.000,M,,*43
$GPGSA,A,1,,,,,,,,,,,,,,,*1E
$GPGSV,1,1,01,23,,,29*72
$GPRMC,104632.057,V,8960.000000,N,00000.000000,E,0.000,0.00,280309,,,N*41
$GPVTG,0.00,T,,M,0.000,N,0.000,K,N*32
$GPGGA,104633.057,8960.000000,N,00000.000000,E,0,0,,137.000,M,13.000,M,,*42
$GPGSA,A,1,,,,,,,,,,,,,,,*1E
$GPRMC,104633.057,V,8960.000000,N,00000.000000,E,0.000,0.00,280309,,,N*40
$GPVTG,0.00,T,,M,0.000,N,0.000,K,N*32
$GPGGA,104634.057,8960.000000,N,00000.000000,E,0,0,,137.000,M,13.000,M,,*45
$GPGSA,A,1,,,,,,,,,,,,,,,*1E
$GPRMC,104634.057,V,8960.000000,N,00000.000000,E,0.000,0.00,280309,,,N*47
$GPVTG,0.00,T,,M,0.000,N,0.000,K,N*32
$GPGGA,104635.057,8960.000000,N,00000.000000,E,0,0,,137.000,M,13.000,M,,*44
$GPGSA,A,1,,,,,,,,,,,,,,,*1E
$GPRMC,104635.057,V,8960.000000,N,00000.000000,E,0.000,0.00,280309,,,N*46
$GPVTG,0.00,T,,M,0.000,N,0.000,K,N*32
$GPGGA,104636.057,8960.000000,N,00000.000000,E,0,0,,137.000,M,13.000,M,,*47
$GPGSA,A,1,,,,,,,,,,,,,,,*1E
$GPRMC,104636.057,V,8960.000000,N,00000.000000,E,0.000,0.00,280309,,,N*45
$GPVTG,0.00,T,,M,0.000,N,0.000,K,N*32
$GPGGA,104637.057,8960.000000,N,00000.000000,E,0,0,,137.000,M,13.000,M,,*46
$GPGSA,A,1,,,,,,,,,,,,,,,*1E
$GPGSV,1,1,01,23,,,20*7B
$GPRMC,104637.057,V,8960.000000,N,00000.000000,E,0.000,0.00,280309,,,N*44
$GPVTG,0.00,T,,M,0.000,N,0.000,K,N*32
$GPGGA,104638.057,8960.000000,N,00000.000000,E,0,0,,137.000,M,13.000,M,,*49
$GPGSA,A,1,,,,,,,,,,,,,,,*1E
$GPRMC,104638.057,V,8960.000000,N,00000.000000,E,0.000,0.00,280309,,,N*4B
$GPVTG,0.00,T,,M,0.000,N,0.000,K,N*32
$GPGGA,104639.057,8960.000000,N,00000.000000,E,0,0,,137.000,M,13.000,M,,*48
$GPGSA,A,1,,,,,,,,,,,,,,,*1E
$GPRMC,104639.057,V,8960.000000,N,00000.000000,E,0.000,0.00,280309,,,N*4A
$GPVTG,0.00,T,,M,0.000,N,0.000,K,N*32
$GPGGA,104640.057,8960.000000,N,00000.000000,E,0,0,,137.000,M,13.000,M,,*46
$GPGSA,A,1,,,,,,,,,,,,,,,*1E
$GPRMC,104640.057,V,8960.000000,N,00000.000000,E,0.000,0.00,280309,,,N*44
$GPVTG,0.00,T,,M,0.000,N,0.000,K,N*32
$GPGGA,104641.057,8960.000000,N,00000.000000,E,0,0,,137.000,M,13.000,M,,*47
$GPGSA,A,1,,,,,,,,,,,,,,,*1E
$GPRMC,104641.057,V,8960.000000,N,00000.000000,E,0.000,0.00,280309,,,N*45
$GPVTG,0.00,T,,M,0.000,N,0.000,K,N*32
$GPGGA,104642.057,8960.000000,N,00000.000000,E,0,0,,137.000,M,13.000,M,,*44
$GPGSA,A,1,,,,,,,,,,,,,,,*1E
$GPGSV,1,1,01,23,,,38*72
$GPRMC,104642.057,V,8960.000000,N,00000.000000,E,0.000,0.00,280309,,,N*46
$GPVTG,0.00,T,,M,0.000,N,0.000,K,N*32
$GPGGA,104643.057,8960.000000,N,00000.000000,E,0,0,,137.000,M,13.000,M,,*45
$GPGSA,A,1,,,,,,,,,,,,,,,*1E
$GPRMC,104643.057,V,8960.000000,N,00000.000000,E,0.000,0.00,280309,,,N*47
$GPVTG,0.00,T,,M,0.000,N,0.000,K,N*32
$GPGGA,104644.057,8960.000000,N,00000.000000,E,0,0,,137.000,M,13.000,M,,*42
$GPGSA,A,1,,,,,,,,,,,,,,,*1E
$GPRMC,104644.057,V,8960.000000,N,00000.000000,E,0.000,0.00,280309,,,N*40
$GPVTG,0.00,T,,M,0.000,N,0.000,K,N*32
$GPGGA,104645.057,8960.000000,N,00000.000000,E,0,0,,137.000,M,13.000,M,,*43
$GPGSA,A,1,,,,,,,,,,,,,,,*1E
$GPRMC,104645.057,V,8960.000000,N,00000.000000,E,0.000,0.00,280309,,,N*41
$GPVTG,0.00,T,,M,0.000,N,0.000,K,N*32
$GPGGA,104646.057,8960.000000,N,00000.000000,E,0,0,,137.000,M,13.000,M,,*40
$GPGSA,A,1,,,,,,,,,,,,,,,*1E
$GPRMC,104646.057,V,8960.000000,N,00000.000000,E,0.000,0.00,280309,,,N*42
$GPVTG,0.00,T,,M,0.000,N,0.000,K,N*32
$GPGGA,104647.057,8960.000000,N,00000.000000,E,0,0,,137.000,M,13.000,M,,*41
$GPGSA,A,1,,,,,,,,,,,,,,,*1E
$GPGSV,1,1,01,23,,,40*7D
$GPRMC,104647.057,V,8960.000000,N,00000.000000,E,0.000,0.00,280309,,,N*43
$GPVTG,0.00,T,,M,0.000,N,0.000,K,N*32
$GPGGA,104648.057,8960.000000,N,00000.000000,E,0,0,,137.000,M,13.000,M,,*4E
$GPGSA,A,1,,,,,,,,,,,,,,,*1E
$GPRMC,104648.057,V,8960.000000,N,00000.000000,E,0.000,0.00,280309,,,N*4C
$GPVTG,0.00,T,,M,0.000,N,0.000,K,N*32
$GPGGA,104649.057,8960.000000,N,00000.000000,E,0,0,,137.000,M,13.000,M,,*4F
$GPGSA,A,1,,,,,,,,,,,,,,,*1E
$GPRMC,104649.057,V,8960.000000,N,00000.000000,E,0.000,0.00,280309,,,N*4D
$GPVTG,0.00,T,,M,0.000,N,0.000,K,N*32
$GPGGA,104650.057,8960.000000,N,00000.000000,E,0,0,,137.000,M,13.000,M,,*47
$GPGSA,A,1,,,,,,,,,,,,,,,*1E
$GPRMC,104650.057,V,8960.000000,N,00000.000000,E,0.000,0.00,280309,,,N*45
$GPVTG,0.00,T,,M,0.000,N,0.000,K,N*32
$GPGGA,104651.057,8960.000000,N,00000.000000,E,0,0,,137.000,M,13.000,M,,*46
$GPGSA,A,1,,,,,,,,,,,,,,,*1E
$GPRMC,104651.057,V,8960.000000,N,00000.000000,E,0.000,0.00,280309,,,N*44
$GPVTG,0.00,T,,M,0.000,N,0.000,K,N*32
$GPGGA,104652.057,8960.000000,N,00000.000000,E,0,0,,137.000,M,13.000,M,,*45
$GPGSA,A,1,,,,,,,,,,,,,,,*1E
$GPGSV,1,1,01,23,,,37*7D
$GPRMC,104652.057,V,8960.000000,N,00000.000000,E,0.000,0.00,280309,,,N*47
$GPVTG,0.00,T,,M,0.000,N,0.000,K,N*32
$GPGGA,104653.057,8960.000000,N,00000.000000,E,0,0,,137.000,M,13.000,M,,*44
$GPGSA,A,1,,,,,,,,,,,,,,,*1E
$GPRMC,104653.057,V,8960.000000,N,00000.000000,E,0.000,0.00,280309,,,N*46
$GPVTG,0.00,T,,M,0.000,N,0.000,K,N*32
$GPGGA,104654.057,8960.000000,N,00000.000000,E,0,0,,137.000,M,13.000,M,,*43
$GPGSA,A,1,,,,,,,,,,,,,,,*1E
$GPRMC,104654.057,V,8960.000000,N,00000.000000,E,0.000,0.00,280309,,,N*41
$GPVTG,0.00,T,,M,0.000,N,0.000,K,N*32
$GPGGA,104655.057,8960.000000,N,00000.000000,E,0,0,,137.000,M,13.000,M,,*42
$GPGSA,A,1,,,,,,,,,,,,,,,*1E
$GPRMC,104655.057,V,8960.000000,N,00000.000000,E,0.000,0.00,280309,,,N*40
$GPVTG,0.00,T,,M,0.000,N,0.000,K,N*32
$GPGGA,104656.057,8960.000000,N,00000.000000,E,0,0,,137.000,M,13.000,M,,*41
$GPGSA,A,1,,,,,,,,,,,,,,,*1E
$GPRMC,104656.057,V,8960.000000,N,00000.000000,E,0.000,0.00,280309,,,N*43
$GPVTG,0.00,T,,M,0.000,N,0.000,K,N*32
$GPGGA,104657.057,8960.000000,N,00000.000000,E,0,0,,137.000,M,13.000,M,,*40
$GPGSA,A,1,,,,,,,,,,,,,,,*1E
$GPGSV,1,1,01,23,,,43*7E
$GPRMC,104657.057,V,8960.000000,N,00000.000000,E,0.000,0.00,280309,,,N*42
$GPVTG,0.00,T,,M,0.000,N,0.000,K,N*32
$GPGGA,104658.057,8960.000000,N,00000.000000,E,0,0,,137.000,M,13.000,M,,*4F
$GPGSA,A,1,,,,,,,,,,,,,,,*1E
$GPRMC,104658.057,V,8960.000000,N,00000.000000,E,0.000,0.00,280309,,,N*4D
$GPVTG,0.00,T,,M,0.000,N,0.000,K,N*32
$GPGGA,104659.057,8960.000000,N,00000.000000,E,0,0,,137.000,M,13.000,M,,*4E
$GPGSA,A,1,,,,,,,,,,,,,,,*1E
$GPRMC,104659.057,V,8960.000000,N,00000.000000,E,0.000,0.00,280309,,,N*4C
$GPVTG,0.00,T,,M,0.000,N,0.000,K,N*32
$GPGGA,104700.057,8960.000000,N,00000.000000,E,0,0,,137.000,M,13.000,M,,*43
$GPGSA,A,1,,,,,,,,,,,,,,,*1E
$GPRMC,104700.057,V,8960.000000,N,00000.000000,E,0.000,0.00,280309,,,N*41
$GPVTG,0.00,T,,M,0.000,N,0.000,K,N*32
$GPGGA,104701.057,8960.000000,N,00000.000000,E,0,0,,137.000,M,13.000,M,,*42
$GPGSA,A,1,,,,,,,,,,,,,,,*1E
$GPRMC,104701.057,V,8960.000000,N,00000.000000,E,0.000,0.00,280309,,,N*40
$GPVTG,0.00,T,,M,0.000,N,0.000,K,N*32
$GPGGA,104702.057,8960.000000,N,00000.000000,E,0,0,,137.000,M,13.000,M,,*41
$GPGSA,A,1,,,,,,,,,,,,,,,*1E
$GPGSV,1,1,02,23,,,34,31,,,31*7D
$GPRMC,104702.057,V,8960.000000,N,00000.000000,E,0.000,0.00,280309,,,N*43
$GPVTG,0.00,T,,M,0.000,N,0.000,K,N*32
$GPGGA,104703.057,8960.000000,N,00000.000000,E,0,0,,137.000,M,13.000,M,,*40
$GPGSA,A,1,,,,,,,,,,,,,,,*1E
$GPRMC,104703.057,V,8960.000000,N,00000.000000,E,0.000,0.00,280309,,,N*42
$GPVTG,0.00,T,,M,0.000,N,0.000,K,N*32
$GPGGA,104704.057,8960.000000,N,00000.000000,E,0,0,,137.000,M,13.000,M,,*47
$GPGSA,A,1,,,,,,,,,,,,,,,*1E
$GPRMC,104704.057,V,8960.000000,N,00000.000000,E,0.000,0.00,280309,,,N*45
$GPVTG,0.00,T,,M,0.000,N,0.000,K,N*32
$GPGGA,104705.057,8960.000000,N,00000.000000,E,0,0,,137.000,M,13.000,M,,*46
$GPGSA,A,1,,,,,,,,,,,,,,,*1E
$GPRMC,104705.057,V,8960.000000,N,00000.000000,E,0.000,0.00,280309,,,N*44
$GPVTG,0.00,T,,M,0.000,N,0.000,K,N*32
$GPGGA,104706.057,8960.000000,N,00000.000000,E,0,0,,137.000,M,13.000,M,,*45
$GPGSA,A,1,,,,,,,,,,,,,,,*1E
$GPRMC,104706.057,V,8960.000000,N,00000.000000,E,0.000,0.00,280309,,,N*47
$GPVTG,0.00,T,,M,0.000,N,0.000,K,N*32
$GPGGA,104707.057,8960.000000,N,00000.000000,E,0,0,,137.000,M,13.000,M,,*44
$GPGSA,A,1,,,,,,,,,,,,,,,*1E
$GPGSV,1,1,02,23,,,41,31,,,35*7B
$GPRMC,104707.057,V,8960.000000,N,00000.000000,E,0.000,0.00,280309,,,N*46
$GPVTG,0.00,T,,M,0.000,N,0.000,K,N*32
$GPGGA,104708.057,8960.000000,N,00000.000000,E,0,0,,137.000,M,13.000,M,,*4B
$GPGSA,A,1,,,,,,,,,,,,,,,*1E
$GPRMC,104708.057,V,8960.000000,N,00000.000000,E,0.000,0.00,280309,,,N*49
$GPVTG,0.00,T,,M,0.000,N,0.000,K,N*32
$GPGGA,104709.057,8960.000000,N,00000.000000,E,0,0,,137.000,M,13.000,M,,*4A
$GPGSA,A,1,,,,,,,,,,,,,,,*1E
$GPRMC,104709.057,V,8960.000000,N,00000.000000,E,0.000,0.00,280309,,,N*48
$GPVTG,0.00,T,,M,0.000,N,0.000,K,N*32
$GPGGA,104710.057,8960.000000,N,00000.000000,E,0,0,,137.000,M,13.000,M,,*42
$GPGSA,A,1,,,,,,,,,,,,,,,*1E
$GPRMC,104710.057,V,8960.000000,N,00000.000000,E,0.000,0.00,280309,,,N*40
$GPVTG,0.00,T,,M,0.000,N,0.000,K,N*32
$GPGGA,104711.057,8960.000000,N,00000.000000,E,0,0,,137.000,M,13.000,M,,*43
$GPGSA,A,1,,,,,,,,,,,,,,,*1E
$GPRMC,104711.057,V,8960.000000,N,00000.000000,E,0.000,0.00,280309,,,N*41
$GPVTG,0.00,T,,M,0.000,N,0.000,K,N*32
$GPGGA,104712.057,8960.000000,N,00000.000000,E,0,0,,137.000,M,13.000,M,,*40
$GPGSA,A,1,,,,,,,,,,,,,,,*1E
$GPGSV,1,1,03,23,,,45,31,,,38,13,,,42*77
$GPRMC,104712.057,V,8960.000000,N,00000.000000,E,0.000,0.00,280309,,,N*42
$GPVTG,0.00,T,,M,0.000,N,0.000,K,N*32
$GPGGA,104713.057,8960.000000,N,00000.000000,E,0,0,,137.000,M,13.000,M,,*41
$GPGSA,A,1,,,,,,,,,,,,,,,*1E
$GPRMC,104713.057,V,8960.000000,N,00000.000000,E,0.000,0.00,280309,,,N*43
$GPVTG,0.00,T,,M,0.000,N,0.000,K,N*32
$GPGGA,104714.057,8960.000000,N,00000.000000,E,0,0,,137.000,M,13.000,M,,*46
$GPGSA,A,1,,,,,,,,,,,,,,,*1E
$GPRMC,104714.057,V,8960.000000,N,00000.000000,E,0.000,0.00,280309,,,N*44
$GPVTG,0.00,T,,M,0.000,N,0.000,K,N*32
$GPGGA,104715.057,8960.000000,N,00000.000000,E,0,0,,137.000,M,13.000,M,,*47
$GPGSA,A,1,,,,,,,,,,,,,,,*1E
$GPRMC,104715.057,V,8960.000000,N,00000.000000,E,0.000,0.00,280309,,,N*45
$GPVTG,0.00,T,,M,0.000,N,0.000,K,N*32
$GPGGA,104716.057,8960.000000,N,00000.000000,E,0,0,,137.000,M,13.000,M,,*44
$GPGSA,A,1,,,,,,,,,,,,,,,*1E
$GPRMC,104716.057,V,8960.000000,N,00000.000000,E,0.000,0.00,280309,,,N*46
$GPVTG,0.00,T,,M,0.000,N,0.000,K,N*32
$GPGGA,104717.057,8960.000000,N,00000.000000,E,0,0,,137.000,M,13.000,M,,*45
$GPGSA,A,1,,,,,,,,,,,,,,,*1E
$GPGSV,1,1,04,11,,,36,23,,,39,31,,,40,13,,,41*72
$GPRMC,104717.057,V,8960.000000,N,00000.000000,E,0.000,0.00,280309,,,N*47
$GPVTG,0.00,T,,M,0.000,N,0.000,K,N*32
$GPGGA,104718.057,8960.000000,N,00000.000000,E,0,0,,137.000,M,13.000,M,,*4A
$GPGSA,A,1,,,,,,,,,,,,,,,*1E
$GPRMC,104718.057,V,8960.000000,N,00000.000000,E,0.000,0.00,280309,,,N*48
$GPVTG,0.00,T,,M,0.000,N,0.000,K,N*32
$GPGGA,104719.057,8960.000000,N,00000.000000,E,0,0,,137.000,M,13.000,M,,*4B
$GPGSA,A,1,,,,,,,,,,,,,,,*1E
$GPRMC,104719.057,V,8960.000000,N,00000.000000,E,0.000,0.00,280309,,,N*49
$GPVTG,0.00,T,,M,0.000,N,0.000,K,N*32
$GPGGA,104720.057,8960.000000,N,00000.000000,E,0,0,,137.000,M,13.000,M,,*41
$GPGSA,A,1,,,,,,,,,,,,,,,*1E
$GPRMC,104720.057,V,8960.000000,N,00000.000000,E,0.000,0.00,280309,,,N*43
$GPVTG,0.00,T,,M,0.000,N,0.000,K,N*32
$GPGGA,104721.057,8960.000000,N,00000.000000,E,0,0,,137.000,M,13.000,M,,*40
$GPGSA,A,1,,,,,,,,,,,,,,,*1E
$GPRMC,104721.057,V,8960.000000,N,00000.000000,E,0.000,0.00,280309,,,N*42
$GPVTG,0.00,T,,M,0.000,N,0.000,K,N*32
$GPGGA,104722.057,8960.000000,N,00000.000000,E,0,0,,137.000,M,13.000,M,,*43
$GPGSA,A,1,,,,,,,,,,,,,,,*1E
$GPGSV,1,1,04,11,,,36,23,,,30,31,,,38,13,,,37*75
$GPRMC,104722.057,V,8960.000000,N,00000.000000,E,0.000,0.00,280309,,,N*41
$GPVTG,0.00,T,,M,0.000,N,0.000,K,N*32
$GPGGA,104723.057,8960.000000,N,00000.000000,E,0,0,,137.000,M,13.000,M,,*42
$GPGSA,A,1,,,,,,,,,,,,,,,*1E
$GPRMC,104723.057,V,8960.000000,N,00000.000000,E,0.000,0.00,280309,,,N*40
$GPVTG,0.00,T,,M,0.000,N,0.000,K,N*32
$GPGGA,104724.057,8960.000000,N,00000.000000,E,0,0,,137.000,M,13.000,M,,*45
$GPGSA,A,1,,,,,,,,,,,,,,,*1E
$GPRMC,104724.057,V,8960.000000,N,00000.000000,E,0.000,0.00,280309,,,N*47
$GPVTG,0.00,T,,M,0.000,N,0.000,K,N*32
$GPGGA,104725.057,8960.000000,N,00000.000000,E,0,0,,137.000,M,13.000,M,,*44
$GPGSA,A,1,,,,,,,,,,,,,,,*1E
$GPRMC,104725.057,V,8960.000000,N,00000.000000,E,0.000,0.00,280309,,,N*46
$GPVTG,0.00,T,,M,0.000,N,0.000,K,N*32
$GPGGA,104726.057,8960.000000,N,00000.000000,E,0,0,,137.000,M,13.000,M,,*47
$GPGSA,A,1,,,,,,,,,,,,,,,*1E
$GPRMC,104726.057,V,8960.000000,N,00000.000000,E,0.000,0.00,280309,,,N*45
$GPVTG,0.00,T,,M,0.000,N,0.000,K,N*32
$GPGGA,104727.057,8960.000000,N,00000.000000,E,0,0,,137.000,M,13.000,M,,*46
$GPGSA,A,1,,,,,,,,,,,,,,,*1E
$GPGSV,1,1,04,11,,,38,23,,,34,31,,,33,13,,,40*74
$GPRMC,104727.057,V,8960.000000,N,00000.000000,E,0.000,0.00,280309,,,N*44
$GPVTG,0.00,T,,M,0.000,N,0.000,K,N*32
$GPGGA,104728.057,8960.000000,N,00000.000000,E,0,0,,137.000,M,13.000,M,,*49
$GPGSA,A,1,,,,,,,,,,,,,,,*1E
$GPRMC,104728.057,V,8960.000000,N,00000.000000,E,0.000,0.00,280309,,,N*4B
$GPVTG,0.00,T,,M,0.000,N,0.000,K,N*32
$GPGGA,104729.057,8960.000000,N,00000.000000,E,0,0,,137.000,M,13.000,M,,*48
$GPGSA,A,1,,,,,,,,,,,,,,,*1E
$GPRMC,104729.057,V,8960.000000,N,00000.000000,E,0.000,0.00,280309,,,N*4A
$GPVTG,0.00,T,,M,0.000,N,0.000,K,N*32
$GPGGA,104730.057,8960.000000,N,00000.000000,E,0,0,,137.000,M,13.000,M,,*40
$GPGSA,A,1,,,,,,,,,,,,,,,*1E
$GPRMC,104730.057,V,8960.000000,N,00000.000000,E,0.000,0.00,280309,,,N*42
$GPVTG,0.00,T,,M,0.000,N,0.000,K,N*32
$GPGGA,104731.057,8960.000000,N,00000.000000,E,0,0,,137.000,M,13.000,M,,*41
$GPGSA,A,1,,,,,,,,,,,,,,,*1E
$GPRMC,104731.057,V,8960.000000,N,00000.000000,E,0.000,0.00,280309,,,N*43
$GPVTG,0.00,T,,M,0.000,N,0.000,K,N*32
$GPGGA,104732.057,8960.000000,N,00000.000000,E,0,0,,137.000,M,13.000,M,,*42
$GPGSA,A,1,,,,,,,,,,,,,,,*1E
$GPGSV,1,1,04,11,,,41,23,,,35,31,,,27,13,,,45*7B
$GPRMC,104732.057,V,8960.000000,N,00000.000000,E,0.000,0.00,280309,,,N*40
$GPVTG,0.00,T,,M,0.000,N,0.000,K,N*32
$GPGGA,104733.057,8960.000000,N,00000.000000,E,0,0,,137.000,M,13.000,M,,*43
$GPGSA,A,1,,,,,,,,,,,,,,,*1E
$GPRMC,104733.057,V,8960.000000,N,00000.000000,E,0.000,0.00,280309,,,N*41
$GPVTG,0.00,T,,M,0.000,N,0.000,K,N*32
$GPGGA,104734.057,8960.000000,N,00000.000000,E,0,0,,137.000,M,13.000,M,,*44
$GPGSA,A,1,,,,,,,,,,,,,,,*1E
$GPRMC,104734.057,V,8960.000000,N,00000.000000,E,0.000,0.00,280309,,,N*46
$GPVTG,0.00,T,,M,0.000,N,0.000,K,N*32
$GPGGA,104735.057,8960.000000,N,00000.000000,E,0,0,,137.000,M,13.000,M,,*45
$GPGSA,A,1,,,,,,,,,,,,,,,*1E
$GPRMC,104735.057,V,8960.000000,N,00000.000000,E,0.000,0.00,280309,,,N*47
$GPVTG,0.00,T,,M,0.000,N,0.000,K,N*32
$GPGGA,104736.057,8960.000000,N,00000.000000,E,0,0,,137.000,M,13.000,M,,*46
$GPGSA,A,1,,,,,,,,,,,,,,,*1E
$GPRMC,104736.057,V,8960.000000,N,00000.000000,E,0.000,0.00,280309,,,N*44
$GPVTG,0.00,T,,M,0.000,N,0.000,K,N*32
$GPGGA,104737.057,8960.000000,N,00000.000000,E,0,0,,137.000,M,13.000,M,,*47
$GPGSA,A,1,,,,,,,,,,,,,,,*1E
$GPGSV,1,1,04,11,,,41,23,,,37,31,,,28,13,,,44*77
$GPRMC,104737.057,V,8960.000000,N,00000.000000,E,0.000,0.00,280309,,,N*45
$GPVTG,0.00,T,,M,0.000,N,0.000,K,N*32
$GPGGA,104738.057,8960.000000,N,00000.000000,E,0,0,,137.000,M,13.000,M,,*48
$GPGSA,A,1,,,,,,,,,,,,,,,*1E
$GPRMC,104738.057,V,8960.000000,N,00000.000000,E,0.000,0.00,280309,,,N*4A
$GPVTG,0.00,T,,M,0.000,N,0.000,K,N*32
$GPGGA,104739.057,8960.000000,N,00000.000000,E,0,0,,137.000,M,13.000,M,,*49
$GPGSA,A,1,,,,,,,,,,,,,,,*1E
$GPRMC,104739.057,V,8960.000000,N,00000.000000,E,0.000,0.00,280309,,,N*4B
$GPVTG,0.00,T,,M,0.000,N,0.000,K,N*32
$GPGGA,104740.057,8960.000000,N,00000.000000,E,0,0,,137.000,M,13.000,M,,*47
$GPGSA,A,1,,,,,,,,,,,,,,,*1E
$GPRMC,104740.057,V,8960.000000,N,00000.000000,E,0.000,0.00,280309,,,N*45
$GPVTG,0.00,T,,M,0.000,N,0.000,K,N*32
$GPGGA,104741.057,8960.000000,N,00000.000000,E,0,0,,137.000,M,13.000,M,,*46
$GPGSA,A,1,,,,,,,,,,,,,,,*1E
$GPRMC,104741.057,V,8960.000000,N,00000.000000,E,0.000,0.00,280309,,,N*44
$GPVTG,0.00,T,,M,0.000,N,0.000,K,N*32
$GPGGA,104742.057,8960.000000,N,00000.000000,E,0,0,,137.000,M,13.000,M,,*45
$GPGSA,A,1,,,,,,,,,,,,,,,*1E
$GPGSV,1,1,04,11,,,37,23,,,37,31,,,36,13,,,35*7F
$GPRMC,104742.057,V,8960.000000,N,00000.000000,E,0.000,0.00,280309,,,N*47
$GPVTG,0.00,T,,M,0.000,N,0.000,K,N*32
$GPGGA,104743.057,8960.000000,N,00000.000000,E,0,0,,137.000,M,13.000,M,,*44
$GPGSA,A,1,,,,,,,,,,,,,,,*1E
$GPRMC,104743.057,V,8960.000000,N,00000.000000,E,0.000,0.00,280309,,,N*46
$GPVTG,0.00,T,,M,0.000,N,0.000,K,N*32
$GPGGA,104744.057,8960.000000,N,00000.000000,E,0,0,,137.000,M,13.000,M,,*43
$GPGSA,A,1,,,,,,,,,,,,,,,*1E
$GPRMC,104744.057,V,8960.000000,N,00000.000000,E,0.000,0.00,280309,,,N*41
$GPVTG,0.00,T,,M,0.000,N,0.000,K,N*32
$GPGGA,104745.057,8960.000000,N,00000.000000,E,0,0,,137.000,M,13.000,M,,*42
$GPGSA,A,1,,,,,,,,,,,,,,,*1E
$GPRMC,104745.057,V,8960.000000,N,00000.000000,E,0.000,0.00,280309,,,N*40
$GPVTG,0.00,T,,M,0.000,N,0.000,K,N*32
$GPGGA,104746.057,8960.000000,N,00000.000000,E,0,0,,137.000,M,13.000,M,,*41
$GPGSA,A,1,,,,,,,,,,,,,,,*1E
$GPRMC,104746.057,V,8960.000000,N,00000.000000,E,0.000,0.00,280309,,,N*43
$GPVTG,0.00,T,,M,0.000,N,0.000,K,N*32
$GPGGA,104747.057,8960.000000,N,00000.000000,E,0,0,,137.000,M,13.000,M,,*40
$GPGSA,A,1,,,,,,,,,,,,,,,*1E
$GPGSV,2,1,05,13,00,000,25,11,,,23,23,,,27,31,,,38*46
$GPGSV,2,2,05,13,,,18*77
$GPRMC,104747.057,V,8960.000000,N,00000.000000,E,0.000,0.00,280309,,,N*42
$GPVTG,0.00,T,,M,0.000,N,0.000,K,N*32
$GPGGA,104748.057,8960.000000,N,00000.000000,E,0,0,,137.000,M,13.000,M,,*4F
$GPGSA,A,1,,,,,,,,,,,,,,,*1E
$GPRMC,104748.057,V,8960.000000,N,00000.000000,E,0.000,0.00,280309,,,N*4D
$GPVTG,0.00,T,,M,0.000,N,0.000,K,N*32
$GPGGA,104749.057,8960.000000,N,00000.000000,E,0,0,,137.000,M,13.000,M,,*4E
$GPGSA,A,1,,,,,,,,,,,,,,,*1E
$GPRMC,104749.057,V,8960.000000,N,00000.000000,E,0.000,0.00,280309,,,N*4C
$GPVTG,0.00,T,,M,0.000,N,0.000,K,N*32
$GPGGA,104750.057,8960.000000,N,00000.000000,E,0,0,,137.000,M,13.000,M,,*46
$GPGSA,A,1,,,,,,,,,,,,,,,*1E
$GPRMC,104750.057,V,8960.000000,N,00000.000000,E,0.000,0.00,280309,,,N*44
$GPVTG,0.00,T,,M,0.000,N,0.000,K,N*32
$GPGGA,104751.057,8960.000000,N,00000.000000,E,0,0,,137.000,M,13.000,M,,*47
$GPGSA,A,1,,,,,,,,,,,,,,,*1E
$GPRMC,104751.057,V,8960.000000,N,00000.000000,E,0.000,0.00,280309,,,N*45
$GPVTG,0.00,T,,M,0.000,N,0.000,K,N*32
$GPGGA,104752.057,8960.000000,N,00000.000000,E,0,0,,137.000,M,13.000,M,,*44
$GPGSA,A,1,,,,,,,,,,,,,,,*1E
$GPGSV,1,1,04,11,,,33,23,,,28,31,,,39,13,,,24*7A
$GPRMC,104752.057,V,8960.000000,N,00000.000000,E,0.000,0.00,280309,,,N*46
$GPVTG,0.00,T,,M,0.000,N,0.000,K,N*32
$GPGGA,104753.057,8960.000000,N,00000.000000,E,0,0,,137.000,M,13.000,M,,*45
$GPGSA,A,1,,,,,,,,,,,,,,,*1E
$GPRMC,104753.057,V,8960.000000,N,00000.000000,E,0.000,0.00,280309,,,N*47
$GPVTG,0.00,T,,M,0.000,N,0.000,K,N*32
$GPGGA,104754.057,8960.000000,N,00000.000000,E,0,0,,137.000,M,13.000,M,,*42
$GPGSA,A,1,,,,,,,,,,,,,,,*1E
$GPRMC,104754.057,V,8960.000000,N,00000.000000,E,0.000,0.00,280309,,,N*40
$GPVTG,0.00,T,,M,0.000,N,0.000,K,N*32
$GPGGA,104755.057,8960.000000,N,00000.000000,E,0,0,,137.000,M,13.000,M,,*43
$GPGSA,A,1,,,,,,,,,,,,,,,*1E
$GPRMC,104755.057,V,8960.000000,N,00000.000000,E,0.000,0.00,280309,,,N*41
$GPVTG,0.00,T,,M,0.000,N,0.000,K,N*32
$GPGGA,104756.057,8960.000000,N,00000.000000,E,0,0,,137.000,M,13.000,M,,*40
$GPGSA,A,1,,,,,,,,,,,,,,,*1E
$GPRMC,104756.057,V,8960.000000,N,00000.000000,E,0.000,0.00,280309,,,N*42
$GPVTG,0.00,T,,M,0.000,N,0.000,K,N*32
$GPGGA,104757.057,8960.000000,N,00000.000000,E,0,0,,137.000,M,13.000,M,,*41
$GPGSA,A,1,,,,,,,,,,,,,,,*1E
$GPGSV,1,1,04,11,,,41,23,,,40,31,,,32,13,,,41*79
$GPRMC,104757.057,V,8960.000000,N,00000.000000,E,0.000,0.00,280309,,,N*43
$GPVTG,0.00,T,,M,0.000,N,0.000,K,N*32
$GPGGA,104758.057,8960.000000,N,00000.000000,E,0,0,,137.000,M,13.000,M,,*4E
$GPGSA,A,1,,,,,,,,,,,,,,,*1E
$GPRMC,104758.057,V,8960.000000,N,00000.000000,E,0.000,0.00,280309,,,N*4C
$GPVTG,0.00,T,,M,0.000,N,0.000,K,N*32
$GPGGA,104759.057,8960.000000,N,00000.000000,E,0,0,,137.000,M,13.000,M,,*4F
$GPGSA,A,1,,,,,,,,,,,,,,,*1E
$GPRMC,104759.057,V,8960.000000,N,00000.000000,E,0.000,0.00,280309,,,N*4D
$GPVTG,0.00,T,,M,0.000,N,0.000,K,N*32
$GPGGA,104800.057,8960.000000,N,00000.000000,E,0,0,,137.000,M,13.000,M,,*4C
$GPGSA,A,1,,,,,,,,,,,,,,,*1E
$GPRMC,104800.057,V,8960.000000,N,00000.000000,E,0.000,0.00,280309,,,N*4E
$GPVTG,0.00,T,,M,0.000,N,0.000,K,N*32
$GPGGA,104801.057,8960.000000,N,00000.000000,E,0,0,,137.000,M,13.000,M,,*4D
$GPGSA,A,1,,,,,,,,,,,,,,,*1E
$GPRMC,104801.057,V,8960.000000,N,00000.000000,E,0.000,0.00,280309,,,N*4F
$GPVTG,0.00,T,,M,0.000,N,0.000,K,N*32
$GPGGA,104802.057,8960.000000,N,00000.000000,E,0,0,,137.000,M,13.000,M,,*4E
$GPGSA,A,1,,,,,,,,,,,,,,,*1E
$GPGSV,1,1,04,11,,,38,23,,,35,31,,,24,13,,,37*73
$GPRMC,104802.057,V,8960.000000,N,00000.000000,E,0.000,0.00,280309,,,N*4C
$GPVTG,0.00,T,,M,0.000,N,0.000,K,N*32
$GPGGA,104803.057,8960.000000,N,00000.000000,E,0,0,,137.000,M,13.000,M,,*4F
$GPGSA,A,1,,,,,,,,,,,,,,,*1E
$GPRMC,104803.057,V,8960.000000,N,00000.000000,E,0.000,0.00,280309,,,N*4D
$GPVTG,0.00,T,,M,0.000,N,0.000,K,N*32
$GPGGA,104804.057,8960.000000,N,00000.000000,E,0,0,,137.000,M,13.000,M,,*48
$GPGSA,A,1,,,,,,,,,,,,,,,*1E
$GPRMC,104804.057,V,8960.000000,N,00000.000000,E,0.000,0.00,280309,,,N*4A
$GPVTG,0.00,T,,M,0.000,N,0.000,K,N*32
$GPGGA,104805.057,8960.000000,N,00000.000000,E,0,0,,137.000,M,13.000,M,,*49
$GPGSA,A,1,,,,,,,,,,,,,,,*1E
$GPRMC,104805.057,V,8960.000000,N,00000.000000,E,0.000,0.00,280309,,,N*4B
$GPVTG,0.00,T,,M,0.000,N,0.000,K,N*32
$GPGGA,104806.057,8960.000000,N,00000.000000,E,0,0,,137.000,M,13.000,M,,*4A
$GPGSA,A,1,,,,,,,,,,,,,,,*1E
$GPRMC,104806.057,V,8960.000000,N,00000.000000,E,0.000,0.00,280309,,,N*48
$GPVTG,0.00,T,,M,0.000,N,0.000,K,N*32
$GPGGA,104807.057,8960.000000,N,00000.000000,E,0,0,,137.000,M,13.000,M,,*4B
$GPGSA,A,1,,,,,,,,,,,,,,,*1E
$GPGSV,1,1,04,11,,,35,23,,,33,31,,,26,13,,,36*7B
$GPRMC,104807.057,V,8960.000000,N,00000.000000,E,0.000,0.00,280309,,,N*49
$GPVTG,0.00,T,,M,0.000,N,0.000,K,N*32
$GPGGA,104808.057,8960.000000,N,00000.000000,E,0,0,,137.000,M,13.000,M,,*44
$GPGSA,A,1,,,,,,,,,,,,,,,*1E
$GPRMC,104808.057,V,8960.000000,N,00000.000000,E,0.000,0.00,280309,,,N*46
$GPVTG,0.00,T,,M,0.000,N,0.000,K,N*32
$GPGGA,104809.057,8960.000000,N,00000.000000,E,0,0,,137.000,M,13.000,M,,*45
$GPGSA,A,1,,,,,,,,,,,,,,,*1E
$GPRMC,104809.057,V,8960.000000,N,00000.000000,E,0.000,0.00,280309,,,N*47
$GPVTG,0.00,T,,M,0.000,N,0.000,K,N*32
$GPGGA,104810.057,8960.000000,N,00000.000000,E,0,0,,137.000,M,13.000,M,,*4D
$GPGSA,A,1,,,,,,,,,,,,,,,*1E
$GPRMC,104810.057,V,8960.000000,N,00000.000000,E,0.000,0.00,280309,,,N*4F
$GPVTG,0.00,T,,M,0.000,N,0.000,K,N*32
$GPGGA,104811.057,8960.000000,N,00000.000000,E,0,0,,137.000,M,13.000,M,,*4C
$GPGSA,A,1,,,,,,,,,,,,,,,*1E
$GPRMC,104811.057,V,8960.000000,N,00000.000000,E,0.000,0.00,280309,,,N*4E
$GPVTG,0.00,T,,M,0.000,N,0.000,K,N*32
$GPGGA,104812.057,8960.000000,N,00000.000000,E,0,0,,137.000,M,13.000,M,,*4F
$GPGSA,A,1,,,,,,,,,,,,,,,*1E
$GPGSV,2,1,05,11,,,36,23,,,38,31,,,28,13,,,39*70
$GPGSV,2,2,05,17,,,36*7F
$GPRMC,104812.057,V,8960.000000,N,00000.000000,E,0.000,0.00,280309,,,N*4D
$GPVTG,0.00,T,,M,0.000,N,0.000,K,N*32
$GPGGA,104813.057,8960.000000,N,00000.000000,E,0,0,,137.000,M,13.000,M,,*4E
$GPGSA,A,1,,,,,,,,,,,,,,,*1E
$GPRMC,104813.057,V,8960.000000,N,00000.000000,E,0.000,0.00,280309,,,N*4C
$GPVTG,0.00,T,,M,0.000,N,0.000,K,N*32
$GPGGA,104814.057,8960.000000,N,00000.000000,E,0,0,,137.000,M,13.000,M,,*49
$GPGSA,A,1,,,,,,,,,,,,,,,*1E
$GPRMC,104814.057,V,8960.000000,N,00000.000000,E,0.000,0.00,280309,,,N*4B
$GPVTG,0.00,T,,M,0.000,N,0.000,K,N*32
$GPGGA,104815.057,8960.000000,N,00000.000000,E,0,0,,137.000,M,13.000,M,,*48
$GPGSA,A,1,,,,,,,,,,,,,,,*1E
$GPRMC,104815.057,V,8960.000000,N,00000.000000,E,0.000,0.00,280309,,,N*4A
$GPVTG,0.00,T,,M,0.000,N,0.000,K,N*32
$GPGGA,104816.057,8960.000000,N,00000.000000,E,0,0,,137.000,M,13.000,M,,*4B
$GPGSA,A,1,,,,,,,,,,,,,,,*1E
$GPRMC,104816.057,V,8960.000000,N,00000.000000,E,0.000,0.00,280309,,,N*49
$GPVTG,0.00,T,,M,0.000,N,0.000,K,N*32
$GPGGA,104817.057,8960.000000,N,00000.000000,E,0,0,,137.000,M,13.000,M,,*4A
$GPGSA,A,1,,,,,,,,,,,,,,,*1E
$GPGSV,2,1,06,11,,,38,23,,,39,31,,,30,13,,,36*7A
$GPGSV,2,2,06,17,,,33,14,,,26*78
$GPRMC,104817.057,V,8960.000000,N,00000.000000,E,0.000,0.00,280309,,,N*48
$GPVTG,0.00,T,,M,0.000,N,0.000,K,N*32
$GPGGA,104818.057,8960.000000,N,00000.000000,E,0,0,,137.000,M,13.000,M,,*45
$GPGSA,A,1,,,,,,,,,,,,,,,*1E
$GPRMC,104818.057,V,8960.000000,N,00000.000000,E,0.000,0.00,280309,,,N*47
$GPVTG,0.00,T,,M,0.000,N,0.000,K,N*32
$GPGGA,104819.057,8960.000000,N,00000.000000,E,0,0,,137.000,M,13.000,M,,*44
$GPGSA,A,1,,,,,,,,,,,,,,,*1E
$GPRMC,104819.057,V,8960.000000,N,00000.000000,E,0.000,0.00,280309,,,N*46
$GPVTG,0.00,T,,M,0.000,N,0.000,K,N*32
$GPGGA,104820.057,8960.000000,N,00000.000000,E,0,0,,137.000,M,13.000,M,,*4E
$GPGSA,A,1,,,,,,,,,,,,,,,*1E
$GPRMC,104820.057,V,8960.000000,N,00000.000000,E,0.000,0.00,280309,,,N*4C
$GPVTG,0.00,T,,M,0.000,N,0.000,K,N*32
$GPGGA,104821.057,8960.000000,N,00000.000000,E,0,0,,137.000,M,13.000,M,,*4F
$GPGSA,A,1,,,,,,,,,,,,,,,*1E
$GPRMC,104821.057,V,8960.000000,N,00000.000000,E,0.000,0.00,280309,,,N*4D
$GPVTG,0.00,T,,M,0.000,N,0.000,K,N*32
$GPGGA,104822.057,8960.000000,N,00000.000000,E,0,0,,137.000,M,13.000,M,,*4C
$GPGSA,A,1,,,,,,,,,,,,,,,*1E
$GPGSV,2,1,06,11,,,23,23,,,36,31,,,22,13,,,38*72
$GPGSV,2,2,06,17,,,34,14,,,20*79
$GPRMC,104822.057,V,8960.000000,N,00000.000000,E,0.000,0.00,280309,,,N*4E
$GPVTG,0.00,T,,M,0.000,N,0.000,K,N*32
$GPGGA,104823.057,8960.000000,N,00000.000000,E,0,0,,137.000,M,13.000,M,,*4D
$GPGSA,A,1,,,,,,,,,,,,,,,*1E
$GPRMC,104823.057,V,8960.000000,N,00000.000000,E,0.000,0.00,280309,,,N*4F
$GPVTG,0.00,T,,M,0.000,N,0.000,K,N*32
$GPGGA,104824.057,8960.000000,N,00000.000000,E,0,0,,137.000,M,13.000,M,,*4A
$GPGSA,A,1,,,,,,,,,,,,,,,*1E
$GPRMC,104824.057,V,8960.000000,N,00000.000000,E,0.000,0.00,280309,,,N*48
$GPVTG,0.00,T,,M,0.000,N,0.000,K,N*32
$GPGGA,104825.057,8960.000000,N,00000.000000,E,0,0,,137.000,M,13.000,M,,*4B
$GPGSA,A,1,,,,,,,,,,,,,,,*1E
$GPRMC,104825.057,V,8960.000000,N,00000.000000,E,0.000,0.00,280309,,,N*49
$GPVTG,0.00,T,,M,0.000,N,0.000,K,N*32
$GPGGA,104826.057,8960.000000,N,00000.000000,E,0,0,,137.000,M,13.000,M,,*48
$GPGSA,A,1,,,,,,,,,,,,,,,*1E
$GPRMC,104826.057,V,8960.000000,N,00000.000000,E,0.000,0.00,280309,,,N*4A
$GPVTG,0.00,T,,M,0.000,N,0.000,K,N*32
$GPGGA,104827.057,8960.000000,N,00000.000000,E,0,0,,137.000,M,13.000,M,,*49
$GPGSA,A,1,,,,,,,,,,,,,,,*1E
$GPGSV,2,1,06,11,,,30,23,,,38,31,,,27,13,,,35*76
$GPGSV,2,2,06,17,,,34,14,,,22*7B
$GPRMC,104827.057,V,8960.000000,N,00000.000000,E,0.000,0.00,280309,,,N*4B
$GPVTG,0.00,T,,M,0.000,N,0.000,K,N*32
$GPGGA,104828.057,8960.000000,N,00000.000000,E,0,0,,137.000,M,13.000,M,,*46
$GPGSA,A,1,,,,,,,,,,,,,,,*1E
$GPRMC,104828.057,V,8960.000000,N,00000.000000,E,0.000,0.00,280309,,,N*44
$GPVTG,0.00,T,,M,0.000,N,0.000,K,N*32
$GPGGA,104829.061,6821.200759,N,01457.384346,W,0,3,,90.592,M,59.408,M,,*69
$GPGSA,A,1,,,,,,,,,,,,,,,*1E
$GPRMC,104829.061,V,6821.200759,N,01457.384346,W,0.000,0.00,280309,,,N*58
$GPVTG,0.00,T,,M,0.000,N,0.000,K,N*32
$GPGGA,104830.998,6219.932611,N,00224.795805,E,0,3,,103.369,M,46.631,M,,*4E
$GPGSA,A,1,,,,,,,,,,,,,,,*1E
$GPRMC,104830.998,V,6219.932611,N,00224.795805,E,0.000,0.00,280309,,,N*40
$GPVTG,0.00,T,,M,0.000,N,0.000,K,N*32
$GPGGA,104831.999,5848.993482,N,00648.314427,E,0,3,,107.348,M,42.652,M,,*49
$GPGSA,A,1,,,,,,,,,,,,,,,*1E
$GPRMC,104831.999,V,5848.993482,N,00648.314427,E,0.000,0.00,280309,,,N*41
$GPVTG,0.00,T,,M,0.000,N,0.000,K,N*32
$GPGGA,104832.999,5737.796097,N,00806.876412,E,0,3,,1980.916,M,42.460,M,,*7F
$GPGSA,A,1,,,,,,,,,,,,,,,*1E
$GPGSV,2,1,06,11,,,17,23,,,38,31,,,28,13,,,34*7D
$GPGSV,2,2,06,17,,,34,14,,,25*7C
$GPRMC,104832.999,V,5737.796097,N,00806.876412,E,0.000,0.00,280309,,,N*43
$GPVTG,0.00,T,,M,0.000,N,0.000,K,N*32
$GPGGA,104833.999,5728.366545,N,00817.320671,E,0,3,,147.017,M,42.495,M,,*4E
$GPGSA,A,1,,,,,,,,,,,,,,,*1E
$GPRMC,104833.999,V,5728.366545,N,00817.320671,E,17.144,57.52,280309,,,N*40
$GPVTG,57.52,T,,M,17.144,N,31.767,K,N*04
$GPGGA,104834.997,5007.936080,N,01431.320172,E,0,4,,320.427,M,45.422,M,,*4B
$GPGSA,A,1,,,,,,,,,,,,,,,*1E
$GPRMC,104834.997,V,5007.936080,N,01431.320172,E,4.021,243.48,280309,,,N*41
$GPVTG,243.48,T,,M,4.021,N,7.452,K,N*38
$GPGGA,104836.000,5007.931564,N,01431.304540,E,0,4,,362.664,M,45.422,M,,*46
$GPGSA,A,1,,,,,,,,,,,,,,,*1E
$GPRMC,104836.000,V,5007.931564,N,01431.304540,E,3.511,244.48,280309,,,N*49
$GPVTG,244.48,T,,M,3.511,N,6.505,K,N*3C
$GPGGA,104837.000,5007.929760,N,01431.308830,E,0,4,,352.825,M,45.422,M,,*46
$GPGSA,A,1,,,,,,,,,,,,,,,*1E
$GPRMC,104837.000,V,5007.929760,N,01431.308830,E,3.236,244.86,280309,,,N*41
$GPVTG,244.86,T,,M,3.236,N,5.997,K,N*38
$GPGGA,104838.000,5007.932991,N,01431.327013,E,0,4,,335.967,M,45.422,M,,*41
$GPGSA,A,1,,,,,,,,,,,,,,,*1E
$GPGSV,2,1,06,11,56,169,28,23,37,201,36,17,37,287,33,13,07,209,35*7F
$GPGSV,2,2,06,31,,,23,14,,,25*7E
$GPRMC,104838.000,V,5007.932991,N,01431.327013,E,2.691,246.78,280309,,,N*4B
$GPVTG,246.78,T,,M,2.691,N,4.987,K,N*33
$GPGGA,104839.000,5007.936432,N,01431.333286,E,0,4,,327.963,M,45.422,M,,*4C
$GPGSA,A,1,,,,,,,,,,,,,,,*1E
$GPRMC,104839.000,V,5007.936432,N,01431.333286,E,2.565,249.33,280309,,,N*49
$GPVTG,249.33,T,,M,2.565,N,4.752,K,N*3D
$GPGGA,104840.000,5007.938289,N,01431.336545,E,1,4,2.52,322.096,M,45.422,M,,*5B
$GPGSA,A,3,11,23,13,17,,,,,,,,,2.71,2.52,0.98*07
$GPRMC,104840.000,A,5007.938289,N,01431.336545,E,2.341,249.86,280309,,,A*54
$GPVTG,249.86,T,,M,2.341,N,4.338,K,A*34
$GPGGA,104841.000,5007.939761,N,01431.338858,E,1,4,2.52,319.867,M,45.422,M,,*59
$GPGSA,A,3,11,23,13,17,,,,,,,,,2.71,2.52,0.98*07
$GPRMC,104841.000,A,5007.939761,N,01431.338858,E,2.210,248.79,280309,,,A*5C
$GPVTG,248.79,T,,M,2.210,N,4.095,K,A*34
$GPGGA,104842.000,5007.940884,N,01431.340584,E,1,4,2.52,315.475,M,45.422,M,,*50
$GPGSA,A,3,11,23,13,17,,,,,,,,,2.71,2.52,0.98*07
$GPRMC,104842.000,A,5007.940884,N,01431.340584,E,2.067,247.60,280309,,,A*53
$GPVTG,247.60,T,,M,2.067,N,3.829,K,A*39
$GPGGA,104843.000,5007.939906,N,01431.338926,E,1,4,2.52,319.715,M,45.422,M,,*56
$GPGSA,A,3,11,23,13,17,,,,,,,,,2.71,2.52,0.98*07
$GPGSV,2,1,06,11,56,169,26,23,37,201,24,17,37,287,34,13,07,209,32*72
$GPGSV,2,2,06,31,,,26,14,,,26*78
$GPRMC,104843.000,A,5007.939906,N,01431.338926,E,1.839,249.16,280309,,,A*53
$GPVTG,249.16,T,,M,1.839,N,3.408,K,A*39
$GPGGA,104844.000,5007.940658,N,01431.340847,E,1,4,2.53,318.071,M,45.422,M,,*57
$GPGSA,A,3,11,23,13,17,,,,,,,,,2.71,2.53,0.98*06
$GPRMC,104844.000,A,5007.940658,N,01431.340847,E,1.640,251.18,280309,,,A*50
$GPVTG,251.18,T,,M,1.640,N,3.039,K,A*38
$GPGGA,104845.000,5007.941101,N,01431.341794,E,1,4,2.53,316.914,M,45.422,M,,*58
$GPGSA,A,3,11,23,13,17,,,,,,,,,2.71,2.53,0.98*06
$GPRMC,104845.000,A,5007.941101,N,01431.341794,E,1.606,250.98,280309,,,A*50
$GPVTG,250.98,T,,M,1.606,N,2.976,K,A*30
$GPGGA,104846.000,5007.941585,N,01431.342013,E,1,4,2.53,315.043,M,45.422,M,,*50
$GPGSA,A,3,11,23,13,17,,,,,,,,,2.71,2.53,0.98*06
$GPRMC,104846.000,A,5007.941585,N,01431.342013,E,1.405,252.22,280309,,,A*52
$GPVTG,252.22,T,,M,1.405,N,2.603,K,A*3F
$GPGGA,104847.000,5007.941022,N,01431.339711,E,1,4,2.52,315.405,M,45.422,M,,*57
$GPGSA,A,3,11,23,13,17,,,,,,,,,2.71,2.52,0.98*07
$GPRMC,104847.000,A,5007.941022,N,01431.339711,E,1.049,259.67,280309,,,A*54
$GPVTG,259.67,T,,M,1.049,N,1.943,K,A*31
$GPGGA,104848.000,5007.940745,N,01431.339138,E,1,4,2.52,316.188,M,45.422,M,,*51
$GPGSA,A,3,11,23,13,17,,,,,,,,,2.71,2.52,0.98*07
$GPGSV,2,1,06,11,56,169,28,23,37,201,32,17,37,287,34,13,07,209,33*7A
$GPGSV,2,2,06,31,,,27,14,,,26*79
$GPRMC,104848.000,A,5007.940745,N,01431.339138,E,0.657,258.77,280309,,,A*59
$GPVTG,258.77,T,,M,0.657,N,1.217,K,A*33
$GPGGA,104849.000,5007.940817,N,01431.338754,E,1,4,2.53,316.594,M,45.422,M,,*5D
$GPGSA,A,3,11,23,13,17,,,,,,,,,2.71,2.53,0.98*06
$GPRMC,104849.000,A,5007.940817,N,01431.338754,E,0.677,256.61,280309,,,A*56
$GPVTG,256.61,T,,M,0.677,N,1.255,K,A*3E
$GPGGA,104850.000,5007.942532,N,01431.343378,E,1,4,2.52,312.764,M,45.422,M,,*53
$GPGSA,A,3,11,23,13,17,,,,,,,,,2.71,2.52,0.98*07
$GPRMC,104850.000,A,5007.942532,N,01431.343378,E,0.543,255.00,280309,,,A*50
$GPVTG,255.00,T,,M,0.543,N,1.006,K,A*3A
$GPGGA,104851.000,5007.942394,N,01431.343240,E,1,4,2.52,312.209,M,45.422,M,,*5C
$GPGSA,A,3,11,23,13,17,,,,,,,,,2.71,2.52,0.98*07
$GPRMC,104851.000,A,5007.942394,N,01431.343240,E,0.517,253.15,280309,,,A*52
$GPVTG,253.15,T,,M,0.517,N,0.958,K,A*3A
$GPGGA,104852.000,5007.943251,N,01431.344444,E,1,4,2.52,310.249,M,45.422,M,,*55
$GPGSA,A,3,11,23,13,17,,,,,,,,,2.71,2.52,0.98*07
$GPRMC,104852.000,A,5007.943251,N,01431.344444,E,0.448,252.18,280309,,,A*5A
$GPVTG,252.18,T,,M,0.448,N,0.830,K,A*32
$GPGGA,104853.000,5007.944551,N,01431.347301,E,1,4,2.52,306.913,M,45.422,M,,*52
$GPGSA,A,3,11,23,13,17,,,,,,,,,2.71,2.52,0.98*07
$GPGSV,2,1,06,11,56,169,35,23,37,201,33,17,37,287,34,13,07,209,34*70
$GPGSV,2,2,06,31,,,25,14,,,25*78
$GPRMC,104853.000,A,5007.944551,N,01431.347301,E,0.541,249.64,280309,,,A*57
$GPVTG,249.64,T,,M,0.541,N,1.003,K,A*32
$GPGGA,104854.000,5007.944471,N,01431.346762,E,1,4,2.53,307.224,M,45.422,M,,*59
$GPGSA,A,3,11,23,13,17,,,,,,,,,2.71,2.53,0.98*06
$GPRMC,104854.000,A,5007.944471,N,01431.346762,E,0.448,247.36,280309,,,A*52
$GPVTG,247.36,T,,M,0.448,N,0.830,K,A*3A
$GPGGA,104855.000,5007.944244,N,01431.346186,E,1,4,2.52,307.546,M,45.422,M,,*56
$GPGSA,A,3,11,23,13,17,,,,,,,,,2.71,2.52,0.98*07
$GPRMC,104855.000,A,5007.944244,N,01431.346186,E,0.448,245.86,280309,,,A*56
$GPVTG,245.86,T,,M,0.448,N,0.831,K,A*32
$GPGGA,104856.000,5007.943748,N,01431.344659,E,1,4,2.53,308.401,M,45.422,M,,*50
$GPGSA,A,3,11,23,13,17,,,,,,,,,2.71,2.53,0.98*06
$GPRMC,104856.000,A,5007.943748,N,01431.344659,E,0.407,244.80,280309,,,A*50
$GPVTG,244.80,T,,M,0.407,N,0.755,K,A*33
$GPGGA,104857.000,5007.943305,N,01431.344231,E,1,4,2.53,308.768,M,45.422,M,,*5A
$GPGSA,A,3,11,23,13,17,,,,,,,,,2.71,2.53,0.98*06
$GPRMC,104857.000,A,5007.943305,N,01431.344231,E,0.339,246.50,280309,,,A*53
$GPVTG,246.50,T,,M,0.339,N,0.628,K,A*3D
$GPGGA,104858.000,5007.944131,N,01431.344530,E,1,4,2.53,306.740,M,45.422,M,,*55
$GPGSA,A,3,11,23,13,17,,,,,,,,,2.71,2.53,0.98*06
$GPGSV,2,1,06,11,56,169,35,23,37,201,39,17,37,286,36,13,07,209,34*79
$GPGSV,2,2,06,31,,,24,14,,,26*7A
$GPRMC,104858.000,A,5007.944131,N,01431.344530,E,0.602,238.57,280309,,,A*5B
$GPVTG,238.57,T,,M,0.602,N,1.115,K,A*36
$GPGGA,104859.000,5007.943162,N,01431.343221,E,1,4,2.53,307.835,M,45.422,M,,*59
$GPGSA,A,3,11,23,13,17,,,,,,,,,2.71,2.53,0.98*06
$GPRMC,104859.000,A,5007.943162,N,01431.343221,E,0.639,225.19,280309,,,A*55
$GPVTG,225.19,T,,M,0.639,N,1.184,K,A*30
$GPGGA,104900.000,5007.943070,N,01431.342577,E,1,4,2.52,307.960,M,45.422,M,,*53
$GPGSA,A,3,11,23,13,17,,,,,,,,,2.71,2.52,0.98*07
$GPRMC,104900.000,A,5007.943070,N,01431.342577,E,0.430,215.51,280309,,,A*5B
$GPVTG,215.51,T,,M,0.430,N,0.797,K,A*31
$GPGGA,104901.000,5007.943925,N,01431.345622,E,1,4,2.53,306.621,M,45.422,M,,*55
$GPGSA,A,3,11,23,13,17,,,,,,,,,2.71,2.53,0.98*06
$GPRMC,104901.000,A,5007.943925,N,01431.345622,E,0.348,200.65,280309,,,A*5C
$GPVTG,200.65,T,,M,0.348,N,0.645,K,A*34
$GPGGA,104902.000,5007.943877,N,01431.345916,E,1,4,2.53,306.274,M,45.422,M,,*5C
$GPGSA,A,3,11,23,13,17,,,,,,,,,2.71,2.53,0.98*06
$GPRMC,104902.000,A,5007.943877,N,01431.345916,E,0.196,193.27,280309,,,A*5F
$GPVTG,193.27,T,,M,0.196,N,0.363,K,A*3B
$GPGGA,104903.000,5007.943345,N,01431.345583,E,1,4,2.52,306.971,M,45.422,M,,*58
$GPGSA,A,3,11,23,13,17,,,,,,,,,2.71,2.52,0.98*07
$GPGSV,2,1,06,11,56,169,38,23,37,201,41,17,37,286,37,13,07,209,39*77
$GPGSV,2,2,06,31,,,31,14,,,24*7C
$GPRMC,104903.000,A,5007.943345,N,01431.345583,E,0.634,189.82,280309,,,A*5F
$GPVTG,189.82,T,,M,0.634,N,1.174,K,A*35
$GPGGA,104904.000,5007.942268,N,01431.342971,E,1,4,2.53,308.239,M,45.422,M,,*5E
$GPGSA,A,3,11,23,13,17,,,,,,,,,2.71,2.53,0.98*06
$GPRMC,104904.000,A,5007.942268,N,01431.342971,E,0.818,184.10,280309,,,A*57
$GPVTG,184.10,T,,M,0.818,N,1.516,K,A*33
$GPGGA,104905.000,5007.942456,N,01431.344043,E,1,4,2.53,307.086,M,45.422,M,,*53
$GPGSA,A,3,11,23,13,17,,,,,,,,,2.71,2.53,0.98*06
$GPRMC,104905.000,A,5007.942456,N,01431.344043,E,0.643,183.29,280309,,,A*5E
$GPVTG,183.29,T,,M,0.643,N,1.192,K,A*36
$GPGGA,104906.000,5007.942875,N,01431.345906,E,1,4,2.52,305.965,M,45.422,M,,*53
$GPGSA,A,3,11,23,13,17,,,,,,,,,2.71,2.52,0.98*07
$GPRMC,104906.000,A,5007.942875,N,01431.345906,E,0.334,183.33,280309,,,A*57
$GPVTG,183.33,T,,M,0.334,N,0.618,K,A*3C
$GPGGA,104907.000,5007.943131,N,01431.346585,E,1,4,2.53,305.304,M,45.422,M,,*52
$GPGSA,A,3,11,23,13,17,,,,,,,,,2.71,2.53,0.98*06
$GPRMC,104907.000,A,5007.943131,N,01431.346585,E,0.374,185.76,280309,,,A*59
$GPVTG,185.76,T,,M,0.374,N,0.694,K,A*3B
$GPGGA,104908.000,5007.943155,N,01431.347170,E,1,4,2.52,304.540,M,45.422,M,,*56
$GPGSA,A,3,11,23,13,17,,,,,,,,,2.71,2.52,0.98*07
$GPGSV,2,1,06,11,56,169,42,23,37,201,35,17,37,286,37,13,07,209,39*79
$GPGSV,2,2,06,31,,,30,14,,,14*7E
$GPRMC,104908.000,A,5007.943155,N,01431.347170,E,0.300,189.16,280309,,,A*52
$GPVTG,189.16,T,,M,0.300,N,0.555,K,A*3C
$GPGGA,104909.000,5007.943477,N,01431.347970,E,1,4,2.52,303.817,M,45.422,M,,*52
$GPGSA,A,3,11,23,13,17,,,,,,,,,2.71,2.52,0.98*07
$GPRMC,104909.000,A,5007.943477,N,01431.347970,E,0.310,192.43,280309,,,A*55
$GPVTG,192.43,T,,M,0.310,N,0.574,K,A*34
$GPGGA,104910.000,5007.943687,N,01431.348685,E,1,4,2.53,303.144,M,45.422,M,,*53
$GPGSA,A,3,11,23,13,17,,,,,,,,,2.71,2.53,0.98*06
$GPRMC,104910.000,A,5007.943687,N,01431.348685,E,0.533,196.12,280309,,,A*5D
$GPVTG,196.12,T,,M,0.533,N,0.987,K,A*33
$GPGGA,104911.000,5007.943471,N,01431.348789,E,1,4,2.52,302.711,M,45.422,M,,*52
$GPGSA,A,3,11,23,13,17,,,,,,,,,2.71,2.52,0.98*07
$GPRMC,104911.000,A,5007.943471,N,01431.348789,E,1.422,209.21,280309,,,A*5F
$GPVTG,209.21,T,,M,1.422,N,2.635,K,A*32
$GPGGA,104912.000,5007.943552,N,01431.348849,E,1,4,2.53,302.267,M,45.422,M,,*57
$GPGSA,A,3,11,23,13,17,,,,,,,,,2.71,2.53,0.98*06
$GPRMC,104912.000,A,5007.943552,N,01431.348849,E,1.406,211.32,280309,,,A*52
$GPVTG,211.32,T,,M,1.406,N,2.606,K,A*3F
$GPGGA,104913.000,5007.943040,N,01431.347945,E,1,4,2.52,302.985,M,45.422,M,,*54
$GPGSA,A,3,11,23,13,17,,,,,,,,,2.71,2.52,0.98*07
$GPGSV,2,1,06,11,56,169,24,23,37,201,35,17,37,286,26,13,07,209,38*78
$GPGSV,2,2,06,31,,,28,14,,,26*76
$GPRMC,104913.000,A,5007.943040,N,01431.347945,E,0.848,225.97,280309,,,A*58
$GPVTG,225.97,T,,M,0.848,N,1.572,K,A*33
$GPGGA,104914.000,5007.942749,N,01431.347448,E,1,4,2.52,303.762,M,45.422,M,,*5A
$GPGSA,A,3,11,23,13,17,,,,,,,,,2.71,2.52,0.98*07
$GPRMC,104914.000,A,5007.942749,N,01431.347448,E,0.770,226.47,280309,,,A*5A
$GPVTG,226.47,T,,M,0.770,N,1.427,K,A*38
$GPGGA,104915.000,5007.942370,N,01431.346748,E,1,4,2.52,304.301,M,45.422,M,,*51
$GPGSA,A,3,11,23,13,17,,,,,,,,,2.71,2.52,0.98*07
$GPRMC,104915.000,A,5007.942370,N,01431.346748,E,0.678,227.46,280309,,,A*5E
$GPVTG,227.46,T,,M,0.678,N,1.257,K,A*30
$GPGGA,104916.000,5007.942316,N,01431.346610,E,1,4,2.53,303.614,M,45.422,M,,*59
$GPGSA,A,3,11,23,13,17,,,,,,,,,2.71,2.53,0.98*06
$GPRMC,104916.000,A,5007.942316,N,01431.346610,E,0.568,229.71,280309,,,A*59
$GPVTG,229.71,T,,M,0.568,N,1.053,K,A*3E
$GPGGA,104917.000,5007.942210,N,01431.346295,E,1,4,2.53,303.537,M,45.422,M,,*54
$GPGSA,A,3,11,23,13,17,,,,,,,,,2.71,2.53,0.98*06
$GPRMC,104917.000,A,5007.942210,N,01431.346295,E,0.582,231.78,280309,,,A*52
$GPVTG,231.78,T,,M,0.582,N,1.078,K,A*33
$GPGGA,104918.000,5007.941788,N,01431.345451,E,1,4,2.52,304.449,M,45.422,M,,*5F
$GPGSA,A,3,11,23,13,17,,,,,,,,,2.71,2.52,0.98*07
$GPGSV,2,1,07,11,56,169,31,23,37,201,34,17,37,286,35,13,07,209,27*70
$GPGSV,2,2,07,04,05,307,,31,,,36,14,,,37*4D
$GPRMC,104918.000,A,5007.941788,N,01431.345451,E,0.529,232.57,280309,,,A*58
$GPVTG,232.57,T,,M,0.529,N,0.981,K,A*32
$GPGGA,104919.000,5007.941488,N,01431.345074,E,1,4,2.53,304.456,M,45.422,M,,*51
$GPGSA,A,3,11,23,13,17,,,,,,,,,2.71,2.53,0.98*06
$GPRMC,104919.000,A,5007.941488,N,01431.345074,E,0.565,231.88,280309,,,A*50
$GPVTG,231.88,T,,M,0.565,N,1.047,K,A*39
$GPGGA,104920.000,5007.941329,N,01431.345063,E,1,4,2.53,304.482,M,45.422,M,,*58
$GPGSA,A,3,11,23,13,17,,,,,,,,,2.71,2.53,0.98*06
$GPRMC,104920.000,A,5007.941329,N,01431.345063,E,0.445,234.49,280309,,,A*5B
$GPVTG,234.49,T,,M,0.445,N,0.825,K,A*3F
$GPGGA,104921.000,5007.941373,N,01431.344301,E,1,4,2.53,304.566,M,45.422,M,,*5B
$GPGSA,A,3,11,23,13,17,,,,,,,,,2.71,2.53,0.98*06
$GPRMC,104921.000,A,5007.941373,N,01431.344301,E,0.791,245.44,280309,,,A*52
$GPVTG,245.44,T,,M,0.791,N,1.466,K,A*34
$GPGGA,104922.000,5007.941472,N,01431.343816,E,1,4,2.53,304.554,M,45.422,M,,*55
$GPGSA,A,3,11,23,13,17,,,,,,,,,2.71,2.53,0.98*06
$GPRMC,104922.000,A,5007.941472,N,01431.343816,E,0.813,253.95,280309,,,A*53
$GPVTG,253.95,T,,M,0.813,N,1.507,K,A*3C
$GPGGA,104923.000,5007.941537,N,01431.344025,E,1,4,2.53,303.760,M,45.422,M,,*59
$GPGSA,A,3,11,23,13,17,,,,,,,,,2.71,2.53,0.98*06
$GPGSV,2,1,07,11,56,169,27,23,37,201,36,17,37,286,36,13,07,209,37*77
$GPGSV,2,2,07,04,05,307,,31,,,37,14,,,40*4C
$GPRMC,104923.000,A,5007.941537,N,01431.344025,E,0.828,256.71,280309,,,A*5A
$GPVTG,256.71,T,,M,0.828,N,1.535,K,A*3A
$GPGGA,104924.000,5007.941330,N,01431.343861,E,1,4,2.53,303.654,M,45.422,M,,*56
$GPGSA,A,3,11,23,13,17,,,,,,,,,2.71,2.53,0.98*06
$GPRMC,104924.000,A,5007.941330,N,01431.343861,E,0.644,256.13,280309,,,A*53
$GPVTG,256.13,T,,M,0.644,N,1.193,K,A*32
$GPGGA,104925.000,5007.941281,N,01431.343863,E,1,4,2.52,303.313,M,45.422,M,,*59
$GPGSA,A,3,11,23,13,17,,,,,,,,,2.71,2.52,0.98*07
$GPRMC,104925.000,A,5007.941281,N,01431.343863,E,0.430,250.56,280309,,,A*5D
$GPVTG,250.56,T,,M,0.430,N,0.797,K,A*37
$GPGGA,104926.000,5007.941131,N,01431.343689,E,1,4,2.53,303.523,M,45.422,M,,*5C
$GPGSA,A,3,11,23,13,17,,,,,,,,,2.71,2.53,0.98*06
$GPRMC,104926.000,A,5007.941131,N,01431.343689,E,0.470,240.90,280309,,,A*53
$GPVTG,240.90,T,,M,0.470,N,0.871,K,A*3F
$GPGGA,104927.000,5007.941047,N,01431.343636,E,1,4,2.52,303.796,M,45.422,M,,*54
$GPGSA,A,3,11,23,13,17,,,,,,,,,2.71,2.52,0.98*07
$GPRMC,104927.000,A,5007.941047,N,01431.343636,E,0.371,234.48,280309,,,A*56
$GPVTG,234.48,T,,M,0.371,N,0.688,K,A*37
$GPGGA,104928.000,5007.941188,N,01431.343865,E,1,4,2.53,303.783,M,45.422,M,,*54
$GPGSA,A,3,11,23,13,17,,,,,,,,,2.71,2.53,0.98*06
$GPGSV,2,1,07,11,56,169,23,23,37,201,34,17,37,286,39,13,08,209,34*72
$GPGSV,2,2,07,04,05,307,,31,,,26,14,,,41*4D
$GPRMC,104928.000,A,5007.941188,N,01431.343865,E,0.191,234.48,280309,,,A*5F
$GPVTG,234.48,T,,M,0.191,N,0.354,K,A*3F
$GPGGA,104929.000,5007.941234,N,01431.343749,E,1,4,2.53,304.371,M,45.422,M,,*5E
$GPGSA,A,3,11,23,13,17,,,,,,,,,2.71,2.53,0.98*06
$GPRMC,104929.000,A,5007.941234,N,01431.343749,E,0.212,232.61,280309,,,A*5E
$GPVTG,232.61,T,,M,0.212,N,0.393,K,A*31
$GPGGA,104930.000,5007.941308,N,01431.343808,E,1,4,2.53,303.745,M,45.422,M,,*56
$GPGSA,A,3,11,23,13,17,,,,,,,,,2.71,2.53,0.98*06
$GPRMC,104930.000,A,5007.941308,N,01431.343808,E,0.246,232.93,280309,,,A*5E
$GPVTG,232.93,T,,M,0.246,N,0.456,K,A*33
$GPGGA,104931.000,5007.941267,N,01431.343388,E,1,3,2.62,303.659,M,45.422,M,,*55
$GPGSA,A,2,11,13,17,,,,,,,,,,2.80,2.62,1.00*0A
$GPRMC,104931.000,A,5007.941267,N,01431.343388,E,0.500,239.53,280309,,,A*56
$GPVTG,239.53,T,,M,0.500,N,0.927,K,A*3A
$GPGGA,104932.000,5007.941330,N,01431.343120,E,1,4,2.53,303.715,M,45.422,M,,*59
$GPGSA,A,3,11,23,13,17,,,,,,,,,2.71,2.53,0.98*06
$GPRMC,104932.000,A,5007.941330,N,01431.343120,E,0.558,248.96,280309,,,A*54
$GPVTG,248.96,T,,M,0.558,N,1.034,K,A*32
$GPGGA,104933.000,5007.941492,N,01431.342813,E,1,4,2.53,303.720,M,45.422,M,,*59
$GPGSA,A,3,11,23,13,17,,,,,,,,,2.71,2.53,0.98*06
$GPGSV,2,1,07,11,56,169,24,23,37,201,28,17,37,286,42,13,08,209,24*75
$GPGSV,2,2,07,04,05,307,,31,,,41,14,,,42*4F
$GPRMC,104933.000,A,5007.941492,N,01431.342813,E,0.771,260.93,280309,,,A*54
$GPVTG,260.93,T,,M,0.771,N,1.429,K,A*3C
$GPGGA,104934.000,5007.941593,N,01431.342491,E,1,4,2.53,303.729,M,45.422,M,,*51
$GPGSA,A,3,11,23,13,17,,,,,,,,,2.71,2.53,0.98*06
$GPRMC,104934.000,A,5007.941593,N,01431.342491,E,0.826,268.90,280309,,,A*53
$GPVTG,268.90,T,,M,0.826,N,1.531,K,A*32
$GPGGA,104935.000,5007.941875,N,01431.343151,E,1,5,1.30,303.564,M,45.422,M,,*51
$GPGSA,A,3,11,23,13,17,14,,,,,,,,1.56,1.30,0.86*0C
$GPRMC,104935.000,A,5007.941875,N,01431.343151,E,0.639,273.92,280309,,,A*57
$GPVTG,273.92,T,,M,0.639,N,1.184,K,A*30
$GPGGA,104936.000,5007.942360,N,01431.344447,E,1,3,1.61,303.396,M,45.422,M,,*52
$GPGSA,A,2,23,17,14,,,,,,,,,,1.89,1.61,1.00*06
$GPRMC,104936.000,A,5007.942360,N,01431.344447,E,0.481,284.19,280309,,,A*57
$GPVTG,284.19,T,,M,0.481,N,0.891,K,A*36
$GPGGA,104937.000,5007.942555,N,01431.344268,E,1,4,1.40,303.203,M,45.422,M,,*51
$GPGSA,A,3,11,23,17,14,,,,,,,,,1.70,1.40,0.97*0D
$GPRMC,104937.000,A,5007.942555,N,01431.344268,E,0.501,293.45,280309,,,A*5B
$GPVTG,293.45,T,,M,0.501,N,0.928,K,A*33
$GPGGA,104938.000,5007.942740,N,01431.344520,E,1,5,1.30,303.012,M,45.422,M,,*57
$GPGSA,A,3,11,23,13,17,14,,,,,,,,1.56,1.30,0.86*0C
$GPGSV,2,1,06,11,56,169,27,23,37,201,28,17,37,286,32,14,10,042,38*7E
$GPGSV,2,2,06,13,08,209,21,31,,,38*44
$GPRMC,104938.000,A,5007.942740,N,01431.344520,E,0.441,302.66,280309,,,A*54
$GPVTG,302.66,T,,M,0.441,N,0.818,K,A*3C
$GPGGA,104939.000,5007.942759,N,01431.344346,E,1,5,1.30,303.030,M,45.422,M,,*58
$GPGSA,A,3,11,23,13,17,14,,,,,,,,1.56,1.30,0.86*0C
$GPRMC,104939.000,A,5007.942759,N,01431.344346,E,0.377,304.85,280309,,,A*52
$GPVTG,304.85,T,,M,0.377,N,0.698,K,A*33
$GPGGA,104940.000,5007.943231,N,01431.343886,E,1,6,1.04,303.136,M,45.422,M,,*5F
$GPGSA,A,3,11,23,13,17,14,04,,,,,,,1.34,1.04,0.85*08
$GPRMC,104940.000,A,5007.943231,N,01431.343886,E,1.524,290.19,280309,,,A*5E
$GPVTG,290.19,T,,M,1.524,N,2.824,K,A*30
$GPGGA,104941.000,5007.943360,N,01431.343911,E,1,6,1.04,303.644,M,45.422,M,,*56
$GPGSA,A,3,11,23,13,17,14,04,,,,,,,1.34,1.04,0.85*08
$GPRMC,104941.000,A,5007.943360,N,01431.343911,E,1.484,296.18,280309,,,A*59
$GPVTG,296.18,T,,M,1.484,N,2.749,K,A*38
$GPGGA,104942.000,5007.943621,N,01431.344006,E,1,5,1.30,303.330,M,45.422,M,,*5F
$GPGSA,A,3,11,23,13,17,14,,,,,,,,1.56,1.30,0.86*0C
$GPRMC,104942.000,A,5007.943621,N,01431.344006,E,1.334,301.64,280309,,,A*5A
$GPVTG,301.64,T,,M,1.334,N,2.472,K,A*3B
$GPGGA,104943.000,5007.943519,N,01431.344238,E,1,5,1.30,303.476,M,45.422,M,,*5C
$GPGSA,A,3,11,23,13,17,14,,,,,,,,1.56,1.30,0.86*0C
$GPGSV,2,1,07,11,56,169,28,23,37,201,34,17,37,286,34,14,10,042,29*7B
$GPGSV,2,2,07,13,08,209,22,31,,,39,20,,,33*45
$GPRMC,104943.000,A,5007.943519,N,01431.344238,E,0.924,332.22,280309,,,A*54
$GPVTG,332.22,T,,M,0.924,N,1.713,K,A*34
$GPGGA,104944.000,5007.943578,N,01431.343841,E,1,5,1.30,303.604,M,45.422,M,,*58
$GPGSA,A,3,11,23,13,17,14,,,,,,,,1.56,1.30,0.86*0C
$GPRMC,104944.000,A,5007.943578,N,01431.343841,E,0.780,328.82,280309,,,A*56
$GPVTG,328.82,T,,M,0.780,N,1.445,K,A*35
$GPGGA,104945.000,5007.943585,N,01431.343597,E,1,5,1.30,303.657,M,45.422,M,,*5B
$GPGSA,A,3,11,23,13,17,14,,,,,,,,1.56,1.30,0.86*0C
$GPRMC,104945.000,A,5007.943585,N,01431.343597,E,0.655,323.10,280309,,,A*5A
$GPVTG,323.10,T,,M,0.655,N,1.215,K,A*3F
$GPGGA,104946.000,5007.943501,N,01431.343052,E,1,5,1.30,303.791,M,45.422,M,,*53
$GPGSA,A,3,11,23,13,17,14,,,,,,,,1.56,1.30,0.86*0C
$GPRMC,104946.000,A,5007.943501,N,01431.343052,E,0.535,316.87,280309,,,A*54
$GPVTG,316.87,T,,M,0.535,N,0.991,K,A*34
$GPGGA,104947.000,5007.943412,N,01431.342965,E,1,5,1.30,303.852,M,45.422,M,,*5D
$GPGSA,A,3,11,23,13,17,14,,,,,,,,1.56,1.30,0.86*0C
$GPRMC,104947.000,A,5007.943412,N,01431.342965,E,0.298,314.42,280309,,,A*51
$GPVTG,314.42,T,,M,0.298,N,0.552,K,A*3C
$GPGGA,104948.000,5007.943347,N,01431.342952,E,1,5,1.30,303.875,M,45.422,M,,*54
$GPGSA,A,3,11,23,13,17,14,,,,,,,,1.56,1.30,0.86*0C
$GPGSV,2,1,08,11,56,169,28,23,37,201,24,17,37,286,33,14,10,042,28*73
$GPGSV,2,2,08,13,08,209,23,04,05,307,,31,,,31,20,,,29*7D
$GPRMC,104948.000,A,5007.943347,N,01431.342952,E,0.128,314.42,280309,,,A*55
$GPVTG,314.42,T,,M,0.128,N,0.238,K,A*3F
$GPGGA,104949.000,5007.943373,N,01431.342962,E,1,5,1.30,303.638,M,45.422,M,,*56
$GPGSA,A,3,11,23,13,17,14,,,,,,,,1.56,1.30,0.86*0C
$GPRMC,104949.000,A,5007.943373,N,01431.342962,E,0.134,314.42,280309,,,A*5D
$GPVTG,314.42,T,,M,0.134,N,0.248,K,A*35
$GPGGA,104950.000,5007.943387,N,01431.342909,E,1,5,1.30,303.640,M,45.422,M,,*57
$GPGSA,A,3,11,23,13,17,14,,,,,,,,1.56,1.30,0.86*0C
$GPRMC,104950.000,A,5007.943387,N,01431.342909,E,0.149,314.42,280309,,,A*59
$GPVTG,314.42,T,,M,0.149,N,0.276,K,A*32
$GPGGA,104951.000,5007.943454,N,01431.343009,E,1,5,1.30,303.478,M,45.422,M,,*5E
$GPGSA,A,3,11,23,13,17,14,,,,,,,,1.57,1.30,0.86*0D
$GPRMC,104951.000,A,5007.943454,N,01431.343009,E,0.147,314.42,280309,,,A*57
$GPVTG,314.42,T,,M,0.147,N,0.273,K,A*39
$GPGGA,104952.000,5007.943495,N,01431.342981,E,1,5,1.30,303.448,M,45.422,M,,*5B
$GPGSA,A,3,11,23,13,17,14,,,,,,,,1.56,1.30,0.86*0C
$GPRMC,104952.000,A,5007.943495,N,01431.342981,E,0.458,324.61,280309,,,A*58
$GPVTG,324.61,T,,M,0.458,N,0.848,K,A*32
$GPGGA,104953.000,5007.943671,N,01431.343064,E,1,5,1.31,303.335,M,45.422,M,,*5D
$GPGSA,A,3,11,23,13,17,14,,,,,,,,2.16,1.31,1.72*00
$GPGSV,2,1,07,11,56,169,31,23,37,201,30,17,37,286,20,14,10,042,32*78
$GPGSV,2,2,07,13,08,209,30,31,,,30,20,,,32*4E
$GPRMC,104953.000,A,5007.943671,N,01431.343064,E,0.683,310.67,280309,,,A*57
$GPVTG,310.67,T,,M,0.683,N,1.265,K,A*33
$GPGGA,104954.000,5007.943374,N,01431.347980,E,1,5,1.30,300.810,M,45.422,M,,*53
$GPGSA,A,3,11,23,13,17,14,,,,,,,,1.57,1.30,0.86*0D
$GPRMC,104954.000,A,5007.943374,N,01431.347980,E,0.230,300.01,280309,,,A*5A
$GPVTG,300.01,T,,M,0.230,N,0.427,K,A*3F
$GPGGA,104955.000,5007.943215,N,01431.348970,E,1,5,1.30,299.642,M,45.422,M,,*5C
$GPGSA,A,3,11,23,13,17,14,,,,,,,,1.56,1.30,0.86*0C
$GPRMC,104955.000,A,5007.943215,N,01431.348970,E,0.623,154.33,280309,,,A*59
$GPVTG,154.33,T,,M,0.623,N,1.154,K,A*3B
$GPGGA,104956.000,5007.943033,N,01431.351986,E,1,5,1.30,298.522,M,45.422,M,,*5C
$GPGSA,A,3,11,23,13,17,14,,,,,,,,1.56,1.30,0.86*0C
$GPRMC,104956.000,A,5007.943033,N,01431.351986,E,0.629,153.75,280309,,,A*52
$GPVTG,153.75,T,,M,0.629,N,1.165,K,A*36
$GPGGA,104957.000,5007.942521,N,01431.353938,E,1,5,1.30,297.755,M,45.422,M,,*50
$GPGSA,A,3,11,23,13,17,14,,,,,,,,1.56,1.30,0.86*0C
$GPRMC,104957.000,A,5007.942521,N,01431.353938,E,0.666,149.95,280309,,,A*5D
$GPVTG,149.95,T,,M,0.666,N,1.233,K,A*38
$GPGGA,104958.000,5007.943013,N,01431.354177,E,1,5,1.30,297.817,M,45.422,M,,*57
$GPGSA,A,3,11,23,13,17,14,,,,,,,,1.56,1.30,0.86*0C
$GPGSV,2,1,08,11,55,169,26,23,37,201,29,17,37,286,35,14,10,042,31*7D
$GPGSV,2,2,08,13,08,209,28,04,06,307,18,31,,,39,20,,,30*7C
$GPRMC,104958.000,A,5007.943013,N,01431.354177,E,0.440,145.60,280309,,,A*53
$GPVTG,145.60,T,,M,0.440,N,0.815,K,A*37
$GPGGA,104959.000,5007.943134,N,01431.354539,E,1,5,1.30,297.369,M,45.422,M,,*5E
$GPGSA,A,3,11,23,13,17,14,,,,,,,,1.56,1.30,0.86*0C
$GPRMC,104959.000,A,5007.943134,N,01431.354539,E,0.395,143.10,280309,,,A*56
$GPVTG,143.10,T,,M,0.395,N,0.732,K,A*33
$GPGGA,105000.000,5007.942935,N,01431.355121,E,1,5,1.30,297.203,M,45.422,M,,*53
$GPGSA,A,3,11,23,13,17,14,,,,,,,,1.57,1.30,0.86*0D
$GPRMC,105000.000,A,5007.942935,N,01431.355121,E,0.414,141.04,280309,,,A*5F
$GPVTG,141.04,T,,M,0.414,N,0.768,K,A*35
$GPGGA,105001.000,5007.943189,N,01431.355272,E,1,5,1.30,296.329,M,45.422,M,,*51
$GPGSA,A,3,11,23,13,17,14,,,,,,,,1.56,1.30,0.86*0C
$GPRMC,105001.000,A,5007.943189,N,01431.355272,E,0.237,137.38,280309,,,A*5C
$GPVTG,137.38,T,,M,0.237,N,0.439,K,A*3B
$GPGGA,105002.000,5007.943174,N,01431.355359,E,1,5,1.30,296.299,M,45.422,M,,*52
$GPGSA,A,3,11,23,13,17,14,,,,,,,,1.57,1.30,0.86*0D
$GPRMC,105002.000,A,5007.943174,N,01431.355359,E,0.346,149.24,280309,,,A*56
$GPVTG,149.24,T,,M,0.346,N,0.641,K,A*35
$GPGGA,105003.000,5007.943094,N,01431.355321,E,1,5,1.30,296.286,M,45.422,M,,*5D
$GPGSA,A,3,11,23,13,17,14,,,,,,,,1.56,1.30,0.86*0C
$GPGSV,2,1,08,11,55,169,27,23,37,201,27,17,37,286,33,14,10,042,36*73
$GPGSV,2,2,08,13,08,209,27,04,06,307,,31,,,36,20,,,31*74
$GPRMC,105003.000,A,5007.943094,N,01431.355321,E,0.407,169.10,280309,,,A*50
$GPVTG,169.10,T,,M,0.407,N,0.754,K,A*37
$GPGGA,105004.000,5007.943068,N,01431.355158,E,1,5,1.30,296.258,M,45.422,M,,*56
$GPGSA,A,3,11,23,13,17,14,,,,,,,,1.56,1.30,0.86*0C
$GPRMC,105004.000,A,5007.943068,N,01431.355158,E,0.623,340.16,280309,,,A*53
$GPVTG,340.16,T,,M,0.623,N,1.154,K,A*3B
$GPGGA,105005.000,5007.943451,N,01431.355703,E,1,5,1.30,295.542,M,45.422,M,,*5E
$GPGSA,A,3,11,23,13,17,14,,,,,,,,1.56,1.30,0.86*0C
$GPRMC,105005.000,A,5007.943451,N,01431.355703,E,0.809,335.00,280309,,,A*57
$GPVTG,335.00,T,,M,0.809,N,1.500,K,A*3D
$GPGGA,105006.000,5007.943627,N,01431.356088,E,1,6,1.04,295.318,M,45.422,M,,*54
$GPGSA,A,3,11,23,13,17,14,04,,,,,,,1.34,1.04,0.85*08
$GPRMC,105006.000,A,5007.943627,N,01431.356088,E,0.757,334.73,280309,,,A*51
$GPVTG,334.73,T,,M,0.757,N,1.403,K,A*3E
$GPGGA,105007.000,5007.944063,N,01431.355880,E,1,6,1.04,294.521,M,45.422,M,,*5A
$GPGSA,A,3,11,23,13,17,14,04,,,,,,,1.34,1.04,0.85*08
$GPRMC,105007.000,A,5007.944063,N,01431.355880,E,0.596,333.81,280309,,,A*57
$GPVTG,333.81,T,,M,0.596,N,1.104,K,A*39
$GPGGA,105008.000,5007.944549,N,01431.355805,E,1,6,1.04,293.809,M,45.422,M,,*55
$GPGSA,A,3,11,23,13,17,14,04,,,,,,,1.34,1.04,0.85*08
$GPGSV,2,1,08,11,55,169,35,23,38,201,30,17,37,286,41,14,10,042,36*7C
$GPGSV,2,2,08,13,08,209,27,04,06,307,21,31,,,37,20,,,30*77
$GPRMC,105008.000,A,5007.944549,N,01431.355805,E,0.428,330.40,280309,,,A*52
$GPVTG,330.40,T,,M,0.428,N,0.794,K,A*3D
$GPGGA,105009.000,5007.945029,N,01431.356101,E,1,6,1.04,293.402,M,45.422,M,,*5F
$GPGSA,A,3,11,23,13,17,14,04,,,,,,,1.34,1.04,0.85*08
$GPRMC,105009.000,A,5007.945029,N,01431.356101,E,0.344,329.30,280309,,,A*5D
$GPVTG,329.30,T,,M,0.344,N,0.638,K,A*38
$GPGGA,105010.000,5007.945319,N,01431.356469,E,1,6,1.04,293.232,M,45.422,M,,*59
$GPGSA,A,3,11,23,13,17,14,04,,,,,,,1.34,1.04,0.85*08
$GPRMC,105010.000,A,5007.945319,N,01431.356469,E,0.400,339.28,280309,,,A*51
$GPVTG,339.28,T,,M,0.400,N,0.742,K,A*3B
$GPGGA,105011.000,5007.945402,N,01431.356730,E,1,6,1.04,293.164,M,45.422,M,,*5A
$GPGSA,A,3,11,23,13,17,14,04,,,,,,,1.34,1.04,0.85*08
$GPRMC,105011.000,A,5007.945402,N,01431.356730,E,0.463,341.74,280309,,,A*51
$GPVTG,341.74,T,,M,0.463,N,0.857,K,A*33
$GPGGA,105012.000,5007.945530,N,01431.356702,E,1,6,1.08,293.160,M,45.422,M,,*50
$GPGSA,A,3,11,23,13,17,14,04,,,,,,,1.94,1.08,1.61*05
$GPRMC,105012.000,A,5007.945530,N,01431.356702,E,0.547,352.04,280309,,,A*51
$GPVTG,352.04,T,,M,0.547,N,1.014,K,A*3F
$GPGGA,105013.000,5007.945671,N,01431.356780,E,1,6,1.04,293.157,M,45.422,M,,*55
$GPGSA,A,3,11,23,13,17,14,04,,,,,,,1.34,1.04,0.85*08
$GPGSV,2,1,08,11,55,169,28,23,38,201,31,17,37,286,41,14,10,042,37*70
$GPGSV,2,2,08,13,08,209,28,04,06,307,21,31,,,37,20,,,39*71
$GPRMC,105013.000,A,5007.945671,N,01431.356780,E,0.238,352.96,280309,,,A*58
$GPVTG,352.96,T,,M,0.238,N,0.441,K,A*3E
$GPGGA,105014.000,5007.945742,N,01431.356783,E,1,6,1.08,293.146,M,45.422,M,,*5C
$GPGSA,A,3,11,23,13,17,14,04,,,,,,,1.94,1.08,1.62*06
$GPRMC,105014.000,A,5007.945742,N,01431.356783,E,0.243,352.29,280309,,,A*55
$GPVTG,352.29,T,,M,0.243,N,0.450,K,A*36
$GPGGA,105015.000,5007.945809,N,01431.356773,E,1,6,1.08,293.146,M,45.422,M,,*52
$GPGSA,A,3,11,23,13,17,14,04,,,,,,,1.94,1.08,1.62*06
$GPRMC,105015.000,A,5007.945809,N,01431.356773,E,0.210,356.30,280309,,,A*51
$GPVTG,356.30,T,,M,0.210,N,0.390,K,A*37
$GPGGA,105016.000,5007.945872,N,01431.356801,E,1,6,1.04,293.135,M,45.422,M,,*5F
$GPGSA,A,3,11,23,13,17,14,04,,,,,,,1.34,1.04,0.85*08
$GPRMC,105016.000,A,5007.945872,N,01431.356801,E,0.176,356.30,280309,,,A*57
$GPVTG,356.30,T,,M,0.176,N,0.327,K,A*38
$GPGGA,105017.000,5007.945910,N,01431.356741,E,1,6,1.04,293.131,M,45.422,M,,*54
$GPGSA,A,3,11,23,13,17,14,04,,,,,,,1.34,1.04,0.85*08
$GPRMC,105017.000,A,5007.945910,N,01431.356741,E,0.545,324.08,280309,,,A*52
$GPVTG,324.08,T,,M,0.545,N,1.009,K,A*3C
$GPGGA,105018.000,5007.945943,N,01431.356518,E,1,6,1.04,293.143,M,45.422,M,,*56
$GPGSA,A,3,11,23,13,17,14,04,,,,,,,1.34,1.04,0.85*08
$GPGSV,2,1,08,11,55,169,28,23,38,201,30,17,37,286,43,14,10,042,33*77
$GPGSV,2,2,08,13,08,209,27,04,06,307,23,31,,,28,20,,,38*73
$GPRMC,105018.000,A,5007.945943,N,01431.356518,E,0.423,318.47,280309,,,A*50
$GPVTG,318.47,T,,M,0.423,N,0.783,K,A*3D
$GPGGA,105019.000,5007.946015,N,01431.356383,E,1,6,1.04,293.158,M,45.422,M,,*50
$GPGSA,A,3,11,23,13,17,14,04,,,,,,,1.34,1.04,0.85*08
$GPRMC,105019.000,A,5007.946015,N,01431.356383,E,0.383,341.98,280309,,,A*5F
$GPVTG,341.98,T,,M,0.383,N,0.709,K,A*3C
$GPGGA,105020.000,5007.946039,N,01431.356540,E,1,6,1.04,293.165,M,45.422,M,,*53
$GPGSA,A,3,11,23,13,17,14,04,,,,,,,1.34,1.04,0.85*08
$GPRMC,105020.000,A,5007.946039,N,01431.356540,E,0.149,341.98,280309,,,A*56
$GPVTG,341.98,T,,M,0.149,N,0.276,K,A*35
$GPGGA,105021.000,5007.946031,N,01431.356486,E,1,6,1.04,293.166,M,45.422,M,,*52
$GPGSA,A,3,11,23,13,17,14,04,,,,,,,1.34,1.04,0.85*08
$GPRMC,105021.000,A,5007.946031,N,01431.356486,E,0.261,300.09,280309,,,A*50
$GPVTG,300.09,T,,M,0.261,N,0.484,K,A*3A
$GPGGA,105022.000,5007.945986,N,01431.356398,E,1,6,1.04,293.171,M,45.422,M,,*59
$GPGSA,A,3,11,23,13,17,14,04,,,,,,,1.34,1.04,0.85*08
